[{"id":"ICMM00056","name":"Purgatorio","group":"","lat":7.189,"lon":-60.691,"type":"Mine","country":"Venezuela","commodity":"copper","mineral":"Copper","risk":"Elevated"},{"id":"ICMM00147","name":"Northwest San Rafael Mines","group":"","lat":6.368,"lon":-75.05,"type":"Mine","country":"Colombia","commodity":"silver","mineral":"Others","risk":"Elevated"},{"id":"ICMM00291","name":"Agua Branca","group":"","lat":-0.465,"lon":-59.933,"type":"Mine","country":"Brazil","commodity":"tin","mineral":"Others","risk":"Elevated"},{"id":"ICMM00295","name":"Cariri","group":"","lat":-0.998,"lon":-62.899,"type":"Mine","country":"Brazil","commodity":"tin","mineral":"Others","risk":"Elevated"},{"id":"ICMM00334","name":"Campanilla","group":"Campanilla;Nambija District;Campanilla","lat":-4.048,"lon":-78.791,"type":"Mine","country":"Ecuador","commodity":"copper","mineral":"Copper","risk":"Elevated"},{"id":"ICMM00335","name":"Itaiutuba Mine","group":"","lat":-4.034,"lon":-53.123,"type":"Mine","country":"Brazil","commodity":"tin","mineral":"Others","risk":"Elevated"},{"id":"ICMM00341","name":"Bonfim","group":"","lat":-5.581,"lon":-36.666,"type":"Mine","country":"Brazil","commodity":"tungsten","mineral":"Others","risk":"High"},{"id":"ICMM00343","name":"Saco Sao Vicente","group":"","lat":-5.681,"lon":-36.799,"type":"Mine","country":"Brazil","commodity":"tungsten","mineral":"Others","risk":"High"},{"id":"ICMM00345","name":"Cafuca","group":"","lat":-5.744,"lon":-36.354,"type":"Mine","country":"Brazil","commodity":"tungsten","mineral":"Others","risk":"High"},{"id":"ICMM00346","name":"Abrigo","group":"","lat":-5.765,"lon":-36.766,"type":"Mine","country":"Brazil","commodity":"tungsten","mineral":"Others","risk":"High"},{"id":"ICMM00349","name":"Fazenda Bonfim Tungsten I","group":"","lat":-5.831,"lon":-36.116,"type":"Mine","country":"Brazil","commodity":"tungsten","mineral":"Others","risk":"High"},{"id":"ICMM00351","name":"Boqueirao","group":"","lat":-5.848,"lon":-36.082,"type":"Mine","country":"Brazil","commodity":"tungsten","mineral":"Others","risk":"High"},{"id":"ICMM00352","name":"Sao Raimundo","group":"","lat":-5.848,"lon":-52.483,"type":"Mine","country":"Brazil","commodity":"tin","mineral":"Others","risk":"Elevated"},{"id":"ICMM00353","name":"Pindoba, Mazagao","group":"","lat":-5.865,"lon":-36.916,"type":"Mine","country":"Brazil","commodity":"tungsten","mineral":"Others","risk":"High"},{"id":"ICMM00355","name":"Chupador, Trapia, Cacador","group":"","lat":-5.881,"lon":-36.282,"type":"Mine","country":"Brazil","commodity":"tungsten","mineral":"Others","risk":"High"},{"id":"ICMM00358","name":"Louros Mine Tungsten","group":"","lat":-5.965,"lon":-36.066,"type":"Mine","country":"Brazil","commodity":"tungsten","mineral":"Others","risk":"High"},{"id":"ICMM00359","name":"Queimada, Riachao","group":"Queimada, Riachao;Bodo","lat":-5.987,"lon":-36.415,"type":"Mine","country":"Brazil","commodity":"tungsten","mineral":"Others","risk":"High"},{"id":"ICMM00361","name":"Saco Dos Cavalos, Agua Fria","group":"","lat":-6.015,"lon":-37.099,"type":"Mine","country":"Brazil","commodity":"tungsten","mineral":"Others","risk":"High"},{"id":"ICMM00369","name":"Baixos I","group":"","lat":-6.148,"lon":-37.149,"type":"Mine","country":"Brazil","commodity":"tungsten","mineral":"Others","risk":"High"},{"id":"ICMM00370","name":"Barra Verde","group":"","lat":-6.165,"lon":-36.499,"type":"Mine","country":"Brazil","commodity":"tungsten","mineral":"Others","risk":"High"},{"id":"ICMM00374","name":"Mamoal, Nazario, Igarape Arraias","group":"","lat":-6.231,"lon":-55.849,"type":"Mine","country":"Brazil","commodity":"tin","mineral":"Others","risk":"Elevated"},{"id":"ICMM00375","name":"Brejui","group":"Brejui;Sao Sebastiao Tungsten;Northeast Brazil Tin","lat":-6.248,"lon":-36.51,"type":"Mine","country":"Brazil","commodity":"tin","mineral":"Others","risk":"Elevated"},{"id":"ICMM00376","name":"Saco Dos Veados","group":"","lat":-6.265,"lon":-36.582,"type":"Mine","country":"Brazil","commodity":"tungsten","mineral":"Others","risk":"High"},{"id":"ICMM00377","name":"Barra Verde and Barra Vermelho Mines","group":"","lat":-6.283,"lon":-36.536,"type":"Mine","country":"Brazil","commodity":"tungsten","mineral":"Others","risk":"High"},{"id":"ICMM00378","name":"Malhada Limpa Tungsten","group":"","lat":-6.298,"lon":-36.449,"type":"Mine","country":"Brazil","commodity":"tungsten","mineral":"Others","risk":"High"},{"id":"ICMM00379","name":"Brejui","group":"","lat":-6.315,"lon":-36.582,"type":"Mine","country":"Brazil","commodity":"tungsten","mineral":"Others","risk":"High"},{"id":"ICMM00383","name":"Acari, Jardim Do Serido","group":"","lat":-6.365,"lon":-36.699,"type":"Mine","country":"Brazil","commodity":"tungsten","mineral":"Others","risk":"High"},{"id":"ICMM00390","name":"Sossego","group":"Sossego;Sossego;Sossego;Sossego","lat":-6.413,"lon":-50.063,"type":"Mine","country":"Brazil","commodity":"copper","mineral":"Copper","risk":"Elevated"},{"id":"ICMM00394","name":"Diniz, Sabuji, Retiro","group":"","lat":-6.448,"lon":-37.332,"type":"Mine","country":"Brazil","commodity":"tungsten","mineral":"Others","risk":"High"},{"id":"ICMM00397","name":"Timbauba, Alto Alegre","group":"","lat":-6.465,"lon":-37.749,"type":"Mine","country":"Brazil","commodity":"tungsten","mineral":"Others","risk":"High"},{"id":"ICMM00398","name":"Garimpo Agua Branca","group":"","lat":-6.515,"lon":-50.283,"type":"Mine","country":"Brazil","commodity":"tin","mineral":"Others","risk":"Elevated"},{"id":"ICMM00399","name":"Quixere","group":"","lat":-6.554,"lon":-37.158,"type":"Mine","country":"Brazil","commodity":"tungsten","mineral":"Others","risk":"High"},{"id":"ICMM00400","name":"Maloquinha","group":"","lat":-6.631,"lon":-57.466,"type":"Mine","country":"Brazil","commodity":"tin","mineral":"Others","risk":"Elevated"},{"id":"ICMM00403","name":"Malhada Dos Angicos","group":"","lat":-6.698,"lon":-36.749,"type":"Mine","country":"Brazil","commodity":"tungsten","mineral":"Others","risk":"High"},{"id":"ICMM00405","name":"Rio Surubim","group":"","lat":-6.715,"lon":-56.249,"type":"Mine","country":"Brazil","commodity":"tin","mineral":"Others","risk":"Elevated"},{"id":"ICMM00406","name":"Carolina Gubbins","group":"Carolina Gubbins;Tantahuatay","lat":-6.722,"lon":-78.667,"type":"Mine","country":"Peru","commodity":"copper","mineral":"Copper","risk":"Elevated"},{"id":"ICMM00407","name":"Igarape Santo Antonio","group":"","lat":-6.731,"lon":-57.549,"type":"Mine","country":"Brazil","commodity":"tin","mineral":"Others","risk":"Elevated"},{"id":"ICMM00425","name":"Punre Copper 24","group":"","lat":-7.006,"lon":-78.283,"type":"Mine","country":"Peru","commodity":"silver","mineral":"Others","risk":"Elevated"},{"id":"ICMM00433","name":"Rio Manicore Jatuarana","group":"","lat":-7.331,"lon":-61.083,"type":"Mine","country":"Brazil","commodity":"tin","mineral":"Others","risk":"Elevated"},{"id":"ICMM00436","name":"San Judas Tadeo Iv","group":"","lat":-7.384,"lon":-79.09,"type":"Mine","country":"Peru","commodity":"silver","mineral":"Others","risk":"Elevated"},{"id":"ICMM00437","name":"Colloadar Lead Zinc Mine 11","group":"","lat":-7.398,"lon":-78.575,"type":"Mine","country":"Peru","commodity":"zinc","mineral":"Others","risk":"Elevated"},{"id":"ICMM00442","name":"Sayapullo","group":"Sayapullo;Sayapullo;Sayaatoc","lat":-7.599,"lon":-78.472,"type":"Mine","country":"Peru","commodity":"copper","mineral":"Copper","risk":"Elevated"},{"id":"ICMM00443","name":"Algamarca","group":"","lat":-7.615,"lon":-78.05,"type":"Mine","country":"Peru","commodity":"silver","mineral":"Others","risk":"Elevated"},{"id":"ICMM00449","name":"Garimpo Mafui","group":"","lat":-7.881,"lon":-62.149,"type":"Mine","country":"Brazil","commodity":"tin","mineral":"Others","risk":"Elevated"},{"id":"ICMM00454","name":"Rio Marmelos Mafui","group":"","lat":-8.015,"lon":-61.849,"type":"Mine","country":"Brazil","commodity":"tin","mineral":"Others","risk":"Elevated"},{"id":"ICMM00459","name":"Tamboras Y Mundo Nuevo, Minas","group":"Tamboras Y Mundo Nuevo, Minas;Campaccha","lat":-8.051,"lon":-77.97,"type":"Mine","country":"Peru","commodity":"copper","mineral":"Copper","risk":"Elevated"},{"id":"ICMM00464","name":"Igarape Preto","group":"","lat":-8.248,"lon":-60.849,"type":"Mine","country":"Brazil","commodity":"tin","mineral":"Others","risk":"Elevated"},{"id":"ICMM00475","name":"Animas, Mina","group":"","lat":-8.899,"lon":-78.253,"type":"Mine","country":"Peru","commodity":"silver","mineral":"Others","risk":"Elevated"},{"id":"ICMM00477","name":"Vale Un Peru, Mina","group":"","lat":-8.998,"lon":-78.033,"type":"Mine","country":"Peru","commodity":"silver","mineral":"Others","risk":"Elevated"},{"id":"ICMM00479","name":"Amistad, Mina","group":"","lat":-9.073,"lon":-77.458,"type":"Mine","country":"Peru","commodity":"silver","mineral":"Others","risk":"Elevated"},{"id":"ICMM00481","name":"Poco","group":"","lat":-9.115,"lon":-63.149,"type":"Mine","country":"Brazil","commodity":"tin","mineral":"Others","risk":"Elevated"},{"id":"ICMM00483","name":"Duduca","group":"","lat":-9.148,"lon":-62.983,"type":"Mine","country":"Brazil","commodity":"tin","mineral":"Others","risk":"Elevated"},{"id":"ICMM00484","name":"Jacunda","group":"","lat":-9.148,"lon":-62.899,"type":"Mine","country":"Brazil","commodity":"tin","mineral":"Others","risk":"Elevated"},{"id":"ICMM00488","name":"Santa Barbara","group":"","lat":-9.198,"lon":-63.049,"type":"Mine","country":"Brazil","commodity":"tin","mineral":"Others","risk":"Elevated"},{"id":"ICMM00489","name":"Los Brillantes, Mina","group":"","lat":-9.206,"lon":-76.537,"type":"Mine","country":"Peru","commodity":"silver","mineral":"Others","risk":"Elevated"},{"id":"ICMM00490","name":"Sao Francisco, Tiririca","group":"","lat":-9.215,"lon":-61.416,"type":"Mine","country":"Brazil","commodity":"tin","mineral":"Others","risk":"Elevated"},{"id":"ICMM00491","name":"Rio Coti","group":"","lat":-9.215,"lon":-65.016,"type":"Mine","country":"Brazil","commodity":"tin","mineral":"Others","risk":"Elevated"},{"id":"ICMM00496","name":"Morro Potosi","group":"","lat":-9.265,"lon":-62.866,"type":"Mine","country":"Brazil","commodity":"tin","mineral":"Others","risk":"Elevated"},{"id":"ICMM00497","name":"El Extrano, Mina","group":"","lat":-9.265,"lon":-77.916,"type":"Mine","country":"Peru","commodity":"silver","mineral":"Others","risk":"Elevated"},{"id":"ICMM00499","name":"Sao Francisco","group":"","lat":-9.281,"lon":-61.449,"type":"Mine","country":"Brazil","commodity":"tin","mineral":"Others","risk":"Elevated"},{"id":"ICMM00500","name":"Buena Cashma","group":"Buena Cashma;Mangan","lat":-9.299,"lon":-77.782,"type":"Mine","country":"Peru","commodity":"silver","mineral":"Others","risk":"Elevated"},{"id":"ICMM00502","name":"Rio Das Garcas","group":"","lat":-9.298,"lon":-64.133,"type":"Mine","country":"Brazil","commodity":"tin","mineral":"Others","risk":"Elevated"},{"id":"ICMM00504","name":"Queimada, Cachoeirinha","group":"","lat":-9.315,"lon":-62.283,"type":"Mine","country":"Brazil","commodity":"tin","mineral":"Others","risk":"Elevated"},{"id":"ICMM00506","name":"Macisa Mine","group":"","lat":-9.331,"lon":-65.083,"type":"Mine","country":"Brazil","commodity":"tin","mineral":"Others","risk":"Elevated"},{"id":"ICMM00508","name":"Poderosa, Mina","group":"","lat":-9.331,"lon":-77.166,"type":"Mine","country":"Peru","commodity":"silver","mineral":"Others","risk":"Elevated"},{"id":"ICMM00510","name":"Sao Lourenco, Macisa, Caripunas, Limeira","group":"","lat":-9.365,"lon":-64.999,"type":"Mine","country":"Brazil","commodity":"tin","mineral":"Others","risk":"Elevated"},{"id":"ICMM00511","name":"Rio Jaci Parana","group":"","lat":-9.365,"lon":-64.383,"type":"Mine","country":"Brazil","commodity":"tin","mineral":"Others","risk":"Elevated"},{"id":"ICMM00512","name":"Curayacu, Mina","group":"","lat":-9.365,"lon":-77.55,"type":"Mine","country":"Peru","commodity":"silver","mineral":"Others","risk":"Elevated"},{"id":"ICMM00514","name":"Buriti, Bom Futuro, Olho Diagua","group":"","lat":-9.381,"lon":-62.916,"type":"Mine","country":"Brazil","commodity":"tin","mineral":"Others","risk":"Elevated"},{"id":"ICMM00516","name":"Caritianas","group":"","lat":-9.398,"lon":-63.066,"type":"Mine","country":"Brazil","commodity":"tin","mineral":"Others","risk":"Elevated"},{"id":"ICMM00517","name":"Decorfa Uno, Mina","group":"","lat":-9.398,"lon":-77.566,"type":"Mine","country":"Peru","commodity":"silver","mineral":"Others","risk":"Elevated"},{"id":"ICMM00519","name":"Ceriumbras Best Group","group":"","lat":-9.448,"lon":-65.133,"type":"Mine","country":"Brazil","commodity":"tin","mineral":"Others","risk":"Elevated"},{"id":"ICMM00520","name":"Sao Lourenco","group":"","lat":-9.448,"lon":-65.033,"type":"Mine","country":"Brazil","commodity":"tin","mineral":"Others","risk":"Elevated"},{"id":"ICMM00521","name":"Igarape Alves","group":"","lat":-9.465,"lon":-65.166,"type":"Mine","country":"Brazil","commodity":"tin","mineral":"Others","risk":"Elevated"},{"id":"ICMM00522","name":"Contonga, Mina","group":"","lat":-9.465,"lon":-77.466,"type":"Mine","country":"Peru","commodity":"silver","mineral":"Others","risk":"Elevated"},{"id":"ICMM00523","name":"El Milagro, Mina","group":"","lat":-9.465,"lon":-77.233,"type":"Mine","country":"Peru","commodity":"silver","mineral":"Others","risk":"Elevated"},{"id":"ICMM00525","name":"Esperada, Mina","group":"","lat":-9.481,"lon":-77.7,"type":"Mine","country":"Peru","commodity":"silver","mineral":"Others","risk":"Elevated"},{"id":"ICMM00527","name":"La Esperanza De Huaraz, Mina","group":"","lat":-9.498,"lon":-77.883,"type":"Mine","country":"Peru","commodity":"silver","mineral":"Copper","risk":"Elevated"},{"id":"ICMM00531","name":"Wolfram Fortuna","group":"","lat":-9.508,"lon":-77.12,"type":"Mine","country":"Peru","commodity":"tungsten","mineral":"Others","risk":"High"},{"id":"ICMM00532","name":"Chacpar, Mina","group":"","lat":-9.515,"lon":-72.366,"type":"Mine","country":"Peru","commodity":"silver","mineral":"Others","risk":"Elevated"},{"id":"ICMM00537","name":"Oriente Novo","group":"","lat":-9.548,"lon":-62.416,"type":"Mine","country":"Brazil","commodity":"tin","mineral":"Others","risk":"Elevated"},{"id":"ICMM00538","name":"Antamina","group":"Rosita De Oro, Mina;Antamina Mine;Antamina;Antamina;Antamina","lat":-9.548,"lon":-77.055,"type":"Mine","country":"Peru","commodity":"copper","mineral":"Copper","risk":"Elevated"},{"id":"ICMM00542","name":"Los Tres Reyes, Mina","group":"","lat":-9.581,"lon":-77.497,"type":"Mine","country":"Peru","commodity":"silver","mineral":"Others","risk":"Elevated"},{"id":"ICMM00546","name":"Mi Porvenir, Mina","group":"","lat":-9.648,"lon":-77.166,"type":"Mine","country":"Peru","commodity":"silver","mineral":"Others","risk":"Elevated"},{"id":"ICMM00548","name":"Don Lorenzo, Mina","group":"","lat":-9.665,"lon":-77.5,"type":"Mine","country":"Peru","commodity":"silver","mineral":"Others","risk":"Elevated"},{"id":"ICMM00549","name":"San Elias, Mina.","group":"","lat":-9.681,"lon":-77.841,"type":"Mine","country":"Peru","commodity":"silver","mineral":"Others","risk":"Elevated"},{"id":"ICMM00551","name":"Tambillos, Mina","group":"","lat":-9.701,"lon":-77.216,"type":"Mine","country":"Peru","commodity":"silver","mineral":"Others","risk":"Elevated"},{"id":"ICMM00554","name":"Patricia A.P.R., Mina","group":"","lat":-9.731,"lon":-77.35,"type":"Mine","country":"Peru","commodity":"silver","mineral":"Others","risk":"Elevated"},{"id":"ICMM00559","name":"Santa Deda No 2, Mina","group":"","lat":-9.781,"lon":-77.633,"type":"Mine","country":"Peru","commodity":"silver","mineral":"Others","risk":"Elevated"},{"id":"ICMM00560","name":"San Carlos","group":"","lat":-9.798,"lon":-63.033,"type":"Mine","country":"Brazil","commodity":"tin","mineral":"Others","risk":"Elevated"},{"id":"ICMM00561","name":"San Salvador, Mina","group":"San Salvador, Mina;Alerta, Mina;Juan Julio, Mina","lat":-9.824,"lon":-77.461,"type":"Mine","country":"Peru","commodity":"silver","mineral":"Others","risk":"Elevated"},{"id":"ICMM00565","name":"Nuestra Senora Del Rosario, Mina","group":"","lat":-9.84,"lon":-77.841,"type":"Mine","country":"Peru","commodity":"silver","mineral":"Others","risk":"Elevated"},{"id":"ICMM00566","name":"Caraiba","group":"Caraiba Copper Deposit;Caraiba;Cara\u00c3\u00adba;MCSA Mining Complex SXEW;Jaguarari Caraiba","lat":-9.865,"lon":-39.867,"type":"Mine","country":"Brazil","commodity":"copper","mineral":"Copper","risk":"Elevated"},{"id":"ICMM00568","name":"Huanzala","group":"Huanzala;San Jose De Huan.;Huanzala;Monte De Chiripac, Mina;Carmen Del Macizo, Mina;Huanzala Mine;Huanzala (Santa Luisa);Huanzala","lat":-9.874,"lon":-76.995,"type":"Mine","country":"Peru","commodity":"zinc","mineral":"Others","risk":"Elevated"},{"id":"ICMM00570","name":"Sirena Encantadora Mine","group":"","lat":-9.893,"lon":-77.058,"type":"Mine","country":"Peru","commodity":"silver","mineral":"Others","risk":"Elevated"},{"id":"ICMM00579","name":"Cia Estanifera","group":"","lat":-9.998,"lon":-60.999,"type":"Mine","country":"Brazil","commodity":"tin","mineral":"Others","risk":"Elevated"},{"id":"ICMM00583","name":"Gorrioncito, Mina","group":"Gorrioncito, Mina;El Cojo, Mina","lat":-10.023,"lon":-77.421,"type":"Mine","country":"Peru","commodity":"silver","mineral":"Others","risk":"Elevated"},{"id":"ICMM00584","name":"Jhon Rafael, Mina","group":"","lat":-10.031,"lon":-77.333,"type":"Mine","country":"Peru","commodity":"silver","mineral":"Others","risk":"Elevated"},{"id":"ICMM00587","name":"Massangana","group":"","lat":-10.048,"lon":-63.383,"type":"Mine","country":"Brazil","commodity":"tin","mineral":"Others","risk":"Elevated"},{"id":"ICMM00589","name":"San Hilarion, Mina","group":"","lat":-10.148,"lon":-77.333,"type":"Mine","country":"Peru","commodity":"silver","mineral":"Others","risk":"Elevated"},{"id":"ICMM00590","name":"Labor Pata, Sitio","group":"","lat":-10.151,"lon":-76.38,"type":"Mine","country":"Peru","commodity":"silver","mineral":"Others","risk":"Elevated"},{"id":"ICMM00601","name":"Cabeza De Toro, Mina","group":"Cabeza De Toro, Mina;Santa Ana De Tusi, Mina","lat":-10.44,"lon":-76.348,"type":"Mine","country":"Peru","commodity":"silver","mineral":"Others","risk":"Elevated"},{"id":"ICMM00602","name":"El Dorado, Mina","group":"","lat":-10.441,"lon":-77.4,"type":"Mine","country":"Peru","commodity":"silver","mineral":"Others","risk":"Elevated"},{"id":"ICMM00604","name":"Unidad Minera Caudalosa","group":"Unidad Minera Caudalosa;Vinchos;Vinchos","lat":-10.443,"lon":-76.278,"type":"Mine","country":"Peru","commodity":"silver","mineral":"Others","risk":"Elevated"},{"id":"ICMM00605","name":"Yana Mallcu","group":"","lat":-10.465,"lon":-66.466,"type":"Mine","country":"Bolivia","commodity":"tin","mineral":"Others","risk":"Elevated"},{"id":"ICMM00610","name":"Colquipucro, Mina","group":"","lat":-10.483,"lon":-76.515,"type":"Mine","country":"Peru","commodity":"silver","mineral":"Others","risk":"Elevated"},{"id":"ICMM00621","name":"Cortezdredge","group":"","lat":-10.548,"lon":-63.716,"type":"Mine","country":"Brazil","commodity":"tin","mineral":"Others","risk":"Elevated"},{"id":"ICMM00623","name":"Milpo Mine","group":"Milpo Mine;Atacocha","lat":-10.569,"lon":-76.187,"type":"Mine","country":"Peru","commodity":"zinc","mineral":"Others","risk":"Elevated"},{"id":"ICMM00628","name":"El Porvenir","group":"Evita No. 1, Mina;El Porvenir Mine;Milpo 1;Atacocha;El Porvenir (Peru);El Porvenir;Atacocha","lat":-10.6,"lon":-76.21,"type":"Mine","country":"Peru","commodity":"zinc","mineral":"Others","risk":"Elevated"},{"id":"ICMM00631","name":"Raura","group":"Raura;Minas Raura De Cajatambo Zinc Lead Deposit 6","lat":-10.648,"lon":-76.733,"type":"Mine","country":"Peru","commodity":"zinc","mineral":"Others","risk":"Elevated"},{"id":"ICMM00632","name":"Cerro de Pasco","group":"El Pilar, Mina;Cerro De Pasco;Cerro de Pasco;Paragsha;Cerro de Pasco;Cerro de Pasco;Cerro de Pasco;Silver Stockpiles;Paragsha Plant;San Expedito Concentrator;Oxide Plant Plant","lat":-10.673,"lon":-76.257,"type":"Mine","country":"Peru","commodity":"silver","mineral":"Others","risk":"Elevated"},{"id":"ICMM00638","name":"El Brocal (Colquijirca)","group":"Colquijirca, Mina;Colquijirca and Marcapunta Mines;Colquijica;Marcapunta;Tajo Norte;El Brocal (Colquijirca);El Brocal;Colquijirca","lat":-10.753,"lon":-76.267,"type":"Mine","country":"Peru","commodity":"zinc","mineral":"Others","risk":"Elevated"},{"id":"ICMM00639","name":"Rio Mato Cavalo","group":"","lat":-10.771,"lon":-53.089,"type":"Mine","country":"Brazil","commodity":"platinum","mineral":"Others","risk":"Elevated"},{"id":"ICMM00643","name":"Best Mine","group":"","lat":-10.918,"lon":-62.843,"type":"Mine","country":"Brazil","commodity":"tin","mineral":"Others","risk":"Elevated"},{"id":"ICMM00649","name":"Huaron Mines","group":"","lat":-11.015,"lon":-76.45,"type":"Mine","country":"Peru","commodity":"silver","mineral":"Others","risk":"Elevated"},{"id":"ICMM00651","name":"Macambira","group":"","lat":-11.031,"lon":-61.283,"type":"Mine","country":"Brazil","commodity":"tin","mineral":"Others","risk":"Elevated"},{"id":"ICMM00652","name":"Chungar","group":"Chungar;Chungar;Chungar;Chungar","lat":-11.037,"lon":-76.417,"type":"Mine","country":"Peru","commodity":"zinc","mineral":"Others","risk":"Elevated"},{"id":"ICMM00654","name":"Rio 14 De Abril","group":"","lat":-11.098,"lon":-60.833,"type":"Mine","country":"Brazil","commodity":"tin","mineral":"Others","risk":"Elevated"},{"id":"ICMM00655","name":"Colquisa No. 1, Mina","group":"","lat":-11.114,"lon":-76.352,"type":"Mine","country":"Peru","commodity":"silver","mineral":"Others","risk":"Elevated"},{"id":"ICMM00656","name":"Santander","group":"Santander;Chungar Contact Metasomatic Copper 45;Chungar","lat":-11.122,"lon":-76.532,"type":"Mine","country":"Peru","commodity":"zinc","mineral":"Others","risk":"Elevated"},{"id":"ICMM00662","name":"Santander","group":"San Expedito;Santander;Santander, Peru;Santander, Peru","lat":-11.195,"lon":-76.511,"type":"Mine","country":"Peru","commodity":"zinc","mineral":"Others","risk":"Elevated"},{"id":"ICMM00670","name":"Rio Roosevelt","group":"","lat":-11.265,"lon":-60.533,"type":"Mine","country":"Brazil","commodity":"tin","mineral":"Others","risk":"Elevated"},{"id":"ICMM00676","name":"Maria Teresa","group":"Maria Teresa;Maria Teresa;Maria Teresa","lat":-11.492,"lon":-77.269,"type":"Mine","country":"Peru","commodity":"silver","mineral":"Others","risk":"Elevated"},{"id":"ICMM00681","name":"Morococha","group":"Morococha;Casapalca Gubbins Group;Morococha","lat":-11.582,"lon":-76.178,"type":"Mine","country":"Peru","commodity":"silver","mineral":"Others","risk":"Elevated"},{"id":"ICMM00683","name":"Ticlio","group":"Volcan Mines Zinc 25;Casapalca;Ticlio","lat":-11.598,"lon":-76.21,"type":"Mine","country":"Peru","commodity":"zinc","mineral":"Others","risk":"Elevated"},{"id":"ICMM00686","name":"Toromocho","group":"Anticona Y Condenado;Morococha;Morococha;Toromocho;Toromocho","lat":-11.604,"lon":-76.142,"type":"Mine","country":"Peru","commodity":"copper","mineral":"Copper","risk":"Elevated"},{"id":"ICMM00690","name":"Americana, Mina","group":"","lat":-11.643,"lon":-76.262,"type":"Mine","country":"Peru","commodity":"silver","mineral":"Others","risk":"Elevated"},{"id":"ICMM00692","name":"Yauliyacu","group":"Casapalca;Coya, Mina;Eusta, Mina;Eloida Ii, Mina;Casapalca Centromin;Yauliyacu;Alpayana (Americana);Los Quenuales;Yauliyacu;Americana","lat":-11.667,"lon":-76.231,"type":"Mine","country":"Peru","commodity":"zinc","mineral":"Others","risk":"Elevated"},{"id":"ICMM00694","name":"Colqui Camino, Minera","group":"","lat":-11.667,"lon":-76.5,"type":"Mine","country":"Peru","commodity":"silver","mineral":"Others","risk":"Elevated"},{"id":"ICMM00695","name":"Carahuacra Mine","group":"Carahuacra Mine;Yauli;Carahuacra;Victoria Concentrator","lat":-11.681,"lon":-76.089,"type":"Mine","country":"Peru","commodity":"zinc","mineral":"Others","risk":"Elevated"},{"id":"ICMM00698","name":"Carahuacra","group":"Carahuacra;San Cristobal Mine 5;Carahuacra;San cristobal;Yauli","lat":-11.727,"lon":-76.068,"type":"Mine","country":"Peru","commodity":"copper","mineral":"Copper","risk":"Elevated"},{"id":"ICMM00706","name":"Sarita, Mina","group":"","lat":-11.834,"lon":-76.328,"type":"Mine","country":"Peru","commodity":"silver","mineral":"Others","risk":"Elevated"},{"id":"ICMM00707","name":"Siberia, Mina","group":"","lat":-11.877,"lon":-76.251,"type":"Mine","country":"Peru","commodity":"silver","mineral":"Others","risk":"Elevated"},{"id":"ICMM00708","name":"Azulcocha","group":"","lat":-11.915,"lon":-75.312,"type":"Mine","country":"Peru","commodity":"zinc","mineral":"Others","risk":"Elevated"},{"id":"ICMM00710","name":"Cochas Region Lead Zinc Mine 48","group":"","lat":-11.948,"lon":-75.883,"type":"Mine","country":"Peru","commodity":"zinc","mineral":"Others","risk":"Elevated"},{"id":"ICMM00713","name":"Gran Bretana Mine","group":"Gran Bretana Mine;Azulcocha;Azulcocha","lat":-12.062,"lon":-75.666,"type":"Mine","country":"Peru","commodity":"copper","mineral":"Copper","risk":"Elevated"},{"id":"ICMM00715","name":"Unidad San Juan/Millotingo","group":"","lat":-12.131,"lon":-76.3,"type":"Mine","country":"Peru","commodity":"silver","mineral":"Others","risk":"Elevated"},{"id":"ICMM00720","name":"Yauricocha","group":"Yauricocha;Yauricocha;Yauricocha;Yauricocha;Yauricocha","lat":-12.314,"lon":-75.721,"type":"Mine","country":"Peru","commodity":"silver","mineral":"Copper","risk":"Elevated"},{"id":"ICMM00722","name":"Lourdes De Cerro De Pasco Dos, Mina","group":"","lat":-12.368,"lon":-74.8,"type":"Mine","country":"Peru","commodity":"silver","mineral":"Others","risk":"Elevated"},{"id":"ICMM00725","name":"Satanas, Mina","group":"","lat":-12.398,"lon":-75.066,"type":"Mine","country":"Peru","commodity":"zinc","mineral":"Others","risk":"Elevated"},{"id":"ICMM00726","name":"Ricardo, Mina","group":"","lat":-12.452,"lon":-74.176,"type":"Mine","country":"Peru","commodity":"silver","mineral":"Others","risk":"Elevated"},{"id":"ICMM00732","name":"Ventanilla, Mina","group":"","lat":-12.578,"lon":-75.116,"type":"Mine","country":"Peru","commodity":"silver","mineral":"Others","risk":"Elevated"},{"id":"ICMM00733","name":"Rio Apurimac Mina","group":"","lat":-12.586,"lon":-74.0,"type":"Mine","country":"Peru","commodity":"silver","mineral":"Others","risk":"Elevated"},{"id":"ICMM00738","name":"Luna De Plata, Mina","group":"Luna De Plata, Mina;Virginia Vii Mina;Mi Peru Uno, Mina","lat":-12.694,"lon":-75.049,"type":"Mine","country":"Peru","commodity":"silver","mineral":"Others","risk":"Elevated"},{"id":"ICMM00740","name":"Raul Mine","group":"Raul Mine;Condestable Mine;Raul Condestable;Condestable","lat":-12.696,"lon":-76.588,"type":"Mine","country":"Peru","commodity":"copper","mineral":"Copper","risk":"Elevated"},{"id":"ICMM00741","name":"Carolina, Mina","group":"","lat":-12.701,"lon":-74.666,"type":"Mine","country":"Peru","commodity":"silver","mineral":"Others","risk":"Elevated"},{"id":"ICMM00746","name":"Espanola Uno, Mina","group":"","lat":-12.761,"lon":-74.333,"type":"Mine","country":"Peru","commodity":"silver","mineral":"Others","risk":"Elevated"},{"id":"ICMM00747","name":"Lucero No. 2, Mina","group":"","lat":-12.78,"lon":-72.144,"type":"Mine","country":"Peru","commodity":"silver","mineral":"Others","risk":"Elevated"},{"id":"ICMM00756","name":"Julcani","group":"Julcani Mining District;Julcani;Julcani;Julcani","lat":-12.95,"lon":-74.806,"type":"Mine","country":"Peru","commodity":"silver","mineral":"Others","risk":"Elevated"},{"id":"ICMM00766","name":"Pepito, Mina","group":"","lat":-13.031,"lon":-74.983,"type":"Mine","country":"Peru","commodity":"silver","mineral":"Others","risk":"Elevated"},{"id":"ICMM00768","name":"El Olivo, Mina","group":"","lat":-13.044,"lon":-75.066,"type":"Mine","country":"Peru","commodity":"silver","mineral":"Others","risk":"Elevated"},{"id":"ICMM00770","name":"Cullioni I Mina","group":"Cullioni I Mina;Osa Mayor Mina","lat":-13.074,"lon":-73.784,"type":"Mine","country":"Peru","commodity":"silver","mineral":"Others","risk":"Elevated"},{"id":"ICMM00777","name":"San Genaro Silver 26","group":"San Genaro Silver 26;Santa Ines","lat":-13.168,"lon":-75.158,"type":"Mine","country":"Peru","commodity":"silver","mineral":"Others","risk":"Elevated"},{"id":"ICMM00780","name":"Chavin Lead Zinc Mine 34","group":"","lat":-13.19,"lon":-75.65,"type":"Mine","country":"Peru","commodity":"zinc","mineral":"Copper","risk":"Elevated"},{"id":"ICMM00782","name":"Prosperidad No. 1, Mina","group":"","lat":-13.203,"lon":-75.23,"type":"Mine","country":"Peru","commodity":"silver","mineral":"Others","risk":"Elevated"},{"id":"ICMM00785","name":"Guido Daniel, Mina.","group":"","lat":-13.307,"lon":-72.354,"type":"Mine","country":"Peru","commodity":"silver","mineral":"Others","risk":"Elevated"},{"id":"ICMM00788","name":"16 De Octubre, Mina","group":"","lat":-13.361,"lon":-72.871,"type":"Mine","country":"Peru","commodity":"silver","mineral":"Others","risk":"Elevated"},{"id":"ICMM00790","name":"San Daniel, Mina","group":"","lat":-13.416,"lon":-75.466,"type":"Mine","country":"Peru","commodity":"silver","mineral":"Others","risk":"Elevated"},{"id":"ICMM00794","name":"Santa Alicia, Mina.","group":"","lat":-13.49,"lon":-71.705,"type":"Mine","country":"Peru","commodity":"silver","mineral":"Others","risk":"Elevated"},{"id":"ICMM00798","name":"Imelda No. 3, Mina","group":"","lat":-13.528,"lon":-70.922,"type":"Mine","country":"Peru","commodity":"silver","mineral":"Others","risk":"Elevated"},{"id":"ICMM00802","name":"Rio De Contas Sn Occurrence","group":"","lat":-13.581,"lon":-41.832,"type":"Mine","country":"Brazil","commodity":"tin","mineral":"Others","risk":"Elevated"},{"id":"ICMM00803","name":"Paramirim Tin Occurrences","group":"","lat":-13.598,"lon":-42.216,"type":"Mine","country":"Brazil","commodity":"tin","mineral":"Others","risk":"Elevated"},{"id":"ICMM00804","name":"Relampago No. 6, Mina","group":"","lat":-13.598,"lon":-75.414,"type":"Mine","country":"Peru","commodity":"silver","mineral":"Others","risk":"Elevated"},{"id":"ICMM00805","name":"Luna 3, Mina","group":"","lat":-13.598,"lon":-75.344,"type":"Mine","country":"Peru","commodity":"silver","mineral":"Others","risk":"Elevated"},{"id":"ICMM00808","name":"Serra Branca","group":"","lat":-13.614,"lon":-48.066,"type":"Mine","country":"Brazil","commodity":"tin","mineral":"Others","risk":"Elevated"},{"id":"ICMM00823","name":"Catalina Huanca Mina","group":"Catalina Huanca Mina;Catalina Huanca;Catalina Huanca","lat":-13.981,"lon":-73.936,"type":"Mine","country":"Peru","commodity":"zinc","mineral":"Others","risk":"Elevated"},{"id":"ICMM00832","name":"Quenamari Copper 88","group":"Quenamari Copper 88;San Rafael;San Rafael;Bofedal II","lat":-14.23,"lon":-70.331,"type":"Mine","country":"Peru","commodity":"copper","mineral":"Copper","risk":"Elevated"},{"id":"ICMM00833","name":"Chavez, Mina","group":"","lat":-14.229,"lon":-75.42,"type":"Mine","country":"Peru","commodity":"silver","mineral":"Others","risk":"Elevated"},{"id":"ICMM00836","name":"Leila, Mina","group":"Leila, Mina;Santa Rosa, Mina","lat":-14.304,"lon":-71.24,"type":"Mine","country":"Peru","commodity":"silver","mineral":"Others","risk":"Elevated"},{"id":"ICMM00842","name":"San Juan De Hercca, Mina","group":"","lat":-14.363,"lon":-71.208,"type":"Mine","country":"Peru","commodity":"silver","mineral":"Others","risk":"Elevated"},{"id":"ICMM00848","name":"Constancia","group":"Katanga Copper Gold Deposit 36;Constancia","lat":-14.455,"lon":-71.758,"type":"Mine","country":"Peru","commodity":"copper","mineral":"Copper","risk":"Elevated"},{"id":"ICMM00849","name":"Maria Dora, Mina","group":"","lat":-14.448,"lon":-71.033,"type":"Mine","country":"Peru","commodity":"silver","mineral":"Others","risk":"Elevated"},{"id":"ICMM00857","name":"Machucruz Mina","group":"","lat":-14.606,"lon":-74.282,"type":"Mine","country":"Peru","commodity":"silver","mineral":"Others","risk":"Elevated"},{"id":"ICMM00860","name":"San Juan De Lucanas Mina","group":"","lat":-14.664,"lon":-74.204,"type":"Mine","country":"Peru","commodity":"silver","mineral":"Others","risk":"Elevated"},{"id":"ICMM00863","name":"Palca Once Veins: Palca Oeste, Palca Este, Evita and Puncapolla","group":"Palca Once Veins: Palca Oeste, Palca Este, Evita and Puncapolla;Palca X","lat":-14.71,"lon":-69.68,"type":"Mine","country":"Peru","commodity":"tin","mineral":"Others","risk":"Elevated"},{"id":"ICMM00866","name":"El Rubi De Puquio Cia. Minera","group":"","lat":-14.752,"lon":-74.032,"type":"Mine","country":"Peru","commodity":"silver","mineral":"Others","risk":"Elevated"},{"id":"ICMM00867","name":"Don Jorge Derecho Minero","group":"","lat":-14.785,"lon":-73.847,"type":"Mine","country":"Peru","commodity":"silver","mineral":"Others","risk":"Elevated"},{"id":"ICMM00869","name":"Joyel Brillante, Mina","group":"","lat":-14.839,"lon":-71.573,"type":"Mine","country":"Peru","commodity":"silver","mineral":"Others","risk":"Elevated"},{"id":"ICMM00873","name":"Ancoccala, Mina","group":"","lat":-14.935,"lon":-70.315,"type":"Mine","country":"Peru","commodity":"tin","mineral":"Others","risk":"Elevated"},{"id":"ICMM00877","name":"Regina","group":"","lat":-14.997,"lon":-69.939,"type":"Mine","country":"Peru","commodity":"tungsten","mineral":"Others","risk":"High"},{"id":"ICMM00878","name":"Palca 11, Mina","group":"","lat":-14.998,"lon":-69.66,"type":"Mine","country":"Peru","commodity":"tungsten","mineral":"Others","risk":"High"},{"id":"ICMM00879","name":"Cinamono","group":"","lat":-14.998,"lon":-44.999,"type":"Mine","country":"Brazil","commodity":"tin","mineral":"Others","risk":"Elevated"},{"id":"ICMM00892","name":"San Jose De Ayata Mine","group":"","lat":-15.198,"lon":-68.966,"type":"Mine","country":"Bolivia","commodity":"tin","mineral":"Others","risk":"Elevated"},{"id":"ICMM00896","name":"Condoroma Lead Zinc Mine 23","group":"","lat":-15.248,"lon":-71.166,"type":"Mine","country":"Peru","commodity":"zinc","mineral":"Copper","risk":"Elevated"},{"id":"ICMM00897","name":"Suka Ltda.","group":"","lat":-15.248,"lon":-68.95,"type":"Mine","country":"Bolivia","commodity":"tin","mineral":"Others","risk":"Elevated"},{"id":"ICMM00911","name":"Eliana Mina","group":"","lat":-15.318,"lon":-73.986,"type":"Mine","country":"Peru","commodity":"zinc","mineral":"Others","risk":"Elevated"},{"id":"ICMM00914","name":"San Jose De Ayala","group":"","lat":-15.331,"lon":-68.666,"type":"Mine","country":"Bolivia","commodity":"tin","mineral":"Others","risk":"Elevated"},{"id":"ICMM00917","name":"Teresa","group":"","lat":-15.386,"lon":-68.77,"type":"Mine","country":"Bolivia","commodity":"tungsten","mineral":"Others","risk":"High"},{"id":"ICMM00923","name":"Andalucia Y Otros, Derecho Minero","group":"","lat":-15.498,"lon":-72.333,"type":"Mine","country":"Peru","commodity":"silver","mineral":"Others","risk":"Elevated"},{"id":"ICMM00934","name":"Madrigal","group":"","lat":-15.581,"lon":-71.366,"type":"Mine","country":"Peru","commodity":"copper","mineral":"Copper","risk":"Elevated"},{"id":"ICMM00938","name":"Tacaza","group":"Tacaza;Tacaza","lat":-15.611,"lon":-70.729,"type":"Mine","country":"Peru","commodity":"copper","mineral":"Copper","risk":"Elevated"},{"id":"ICMM00942","name":"Lampa","group":"","lat":-15.639,"lon":-70.533,"type":"Mine","country":"Peru","commodity":"silver","mineral":"Others","risk":"Elevated"},{"id":"ICMM00947","name":"Exaltacion Mine","group":"","lat":-15.692,"lon":-69.098,"type":"Mine","country":"Bolivia","commodity":"tin","mineral":"Others","risk":"Elevated"},{"id":"ICMM00948","name":"Todos Santos","group":"","lat":-15.708,"lon":-69.05,"type":"Mine","country":"Bolivia","commodity":"tin","mineral":"Others","risk":"Elevated"},{"id":"ICMM00949","name":"San Rafael","group":"","lat":-15.714,"lon":-70.216,"type":"Mine","country":"Peru","commodity":"copper","mineral":"Copper","risk":"Elevated"},{"id":"ICMM00950","name":"The Consolidated","group":"","lat":-15.738,"lon":-68.501,"type":"Mine","country":"Bolivia","commodity":"tungsten","mineral":"Others","risk":"High"},{"id":"ICMM00952","name":"Matilde Mine","group":"","lat":-15.764,"lon":-68.933,"type":"Mine","country":"Bolivia","commodity":"zinc","mineral":"Others","risk":"Elevated"},{"id":"ICMM00967","name":"Fabulosa Mines Consolidated","group":"","lat":-15.998,"lon":-68.315,"type":"Mine","country":"Bolivia","commodity":"tin","mineral":"Others","risk":"Elevated"},{"id":"ICMM00968","name":"Goias Estanho Mine","group":"","lat":-16.003,"lon":-49.591,"type":"Mine","country":"Brazil","commodity":"tin","mineral":"Others","risk":"Elevated"},{"id":"ICMM00970","name":"Natividad Mine","group":"","lat":-16.078,"lon":-68.317,"type":"Mine","country":"Bolivia","commodity":"tin","mineral":"Others","risk":"Elevated"},{"id":"ICMM00974","name":"Lourdes","group":"","lat":-16.188,"lon":-68.04,"type":"Mine","country":"Bolivia","commodity":"tungsten","mineral":"Others","risk":"High"},{"id":"ICMM00977","name":"Corrego Do Ouro Branco","group":"","lat":-16.281,"lon":-50.516,"type":"Mine","country":"Brazil","commodity":"platinum","mineral":"Others","risk":"Elevated"},{"id":"ICMM00978","name":"Don Carlos","group":"","lat":-16.308,"lon":-68.19,"type":"Mine","country":"Bolivia","commodity":"nickel","mineral":"Nickel","risk":"Moderate"},{"id":"ICMM00979","name":"Esperanza","group":"","lat":-16.312,"lon":-69.238,"type":"Mine","country":"Peru","commodity":"tin","mineral":"Others","risk":"Elevated"},{"id":"ICMM00980","name":"San Antonio Mine","group":"San Antonio Mine;12 Angeles Mine;Complemento Mine;San Antonio 2","lat":-16.331,"lon":-68.152,"type":"Mine","country":"Bolivia","commodity":"tin","mineral":"Others","risk":"Elevated"},{"id":"ICMM00981","name":"Aceromarca","group":"Aceromarca;Aceromarca Mine","lat":-16.338,"lon":-67.978,"type":"Mine","country":"Bolivia","commodity":"tungsten","mineral":"Others","risk":"High"},{"id":"ICMM00982","name":"Kellguani","group":"","lat":-16.348,"lon":-68.116,"type":"Mine","country":"Bolivia","commodity":"tin","mineral":"Others","risk":"Elevated"},{"id":"ICMM00983","name":"Liliana","group":"Liliana;Pichu","lat":-16.358,"lon":-67.672,"type":"Mine","country":"Bolivia","commodity":"tungsten","mineral":"Others","risk":"High"},{"id":"ICMM00984","name":"Reconquistada Mine","group":"","lat":-16.364,"lon":-67.833,"type":"Mine","country":"Bolivia","commodity":"tungsten","mineral":"Others","risk":"High"},{"id":"ICMM00987","name":"Chojlla Mine","group":"Chojlla Mine;Chojlla","lat":-16.396,"lon":-67.771,"type":"Mine","country":"Bolivia","commodity":"tin","mineral":"Others","risk":"Elevated"},{"id":"ICMM00988","name":"Enramada Mine","group":"","lat":-16.398,"lon":-67.816,"type":"Mine","country":"Bolivia","commodity":"tungsten","mineral":"Others","risk":"High"},{"id":"ICMM00990","name":"Colquechaca Mine","group":"","lat":-16.414,"lon":-68.0,"type":"Mine","country":"Bolivia","commodity":"copper","mineral":"Copper","risk":"Elevated"},{"id":"ICMM00991","name":"Reconquistada","group":"","lat":-16.438,"lon":-67.89,"type":"Mine","country":"Bolivia","commodity":"tungsten","mineral":"Others","risk":"High"},{"id":"ICMM00992","name":"Normandia Mine","group":"","lat":-16.452,"lon":-68.345,"type":"Mine","country":"Bolivia","commodity":"silver","mineral":"Others","risk":"Elevated"},{"id":"ICMM00998","name":"Cerro Verde","group":"Cerro Verde;Cerro Verde;Cerro Verde;Cerro Verde;Cerro Verde;Cerro Verde;Cerro Verde SX EW","lat":-16.531,"lon":-71.591,"type":"Mine","country":"Peru","commodity":"copper","mineral":"Copper","risk":"Elevated"},{"id":"ICMM00999","name":"Bolsa Negra","group":"Bolsa Negra;Bolsa Negra Mine","lat":-16.542,"lon":-67.792,"type":"Mine","country":"Bolivia","commodity":"tungsten","mineral":"Others","risk":"High"},{"id":"ICMM01011","name":"Urania","group":"","lat":-16.738,"lon":-67.76,"type":"Mine","country":"Bolivia","commodity":"tin","mineral":"Others","risk":"Elevated"},{"id":"ICMM01017","name":"Buena Ventura Mine","group":"","lat":-16.82,"lon":-67.464,"type":"Mine","country":"Bolivia","commodity":"tin","mineral":"Others","risk":"Elevated"},{"id":"ICMM01020","name":"San Cristobal Mine","group":"","lat":-16.831,"lon":-67.583,"type":"Mine","country":"Bolivia","commodity":"silver","mineral":"Others","risk":"Elevated"},{"id":"ICMM01021","name":"Inca Mine","group":"","lat":-16.845,"lon":-67.452,"type":"Mine","country":"Bolivia","commodity":"tin","mineral":"Others","risk":"Elevated"},{"id":"ICMM01023","name":"Viloco Mine","group":"Viloco Mine;Viloco","lat":-16.873,"lon":-67.636,"type":"Mine","country":"Bolivia","commodity":"tungsten","mineral":"Others","risk":"High"},{"id":"ICMM01024","name":"Nevada Mine","group":"","lat":-16.881,"lon":-67.6,"type":"Mine","country":"Bolivia","commodity":"tin","mineral":"Others","risk":"Elevated"},{"id":"ICMM01025","name":"Pacuni","group":"Pacuni;Mocoya;Monte Blanco","lat":-16.908,"lon":-67.3,"type":"Mine","country":"Bolivia","commodity":"tin","mineral":"Others","risk":"Elevated"},{"id":"ICMM01026","name":"Chojnacota","group":"","lat":-16.908,"lon":-67.57,"type":"Mine","country":"Bolivia","commodity":"tin","mineral":"Others","risk":"Elevated"},{"id":"ICMM01027","name":"Laramcota","group":"","lat":-16.908,"lon":-67.23,"type":"Mine","country":"Bolivia","commodity":"tin","mineral":"Others","risk":"Elevated"},{"id":"ICMM01029","name":"Caracoles Mine","group":"Caracoles Mine;Caracoles;Barrosquira Bajadera;Caracoles Dist.;Caracoles Mill Tailings;Caracoles Mill Tailings;Otilia Mine;Atoroma","lat":-16.914,"lon":-67.483,"type":"Mine","country":"Bolivia","commodity":"tin","mineral":"Others","risk":"Elevated"},{"id":"ICMM01031","name":"Cotacucho","group":"","lat":-16.918,"lon":-67.2,"type":"Mine","country":"Bolivia","commodity":"tin","mineral":"Others","risk":"Elevated"},{"id":"ICMM01032","name":"Tanapaca Mine","group":"","lat":-16.931,"lon":-67.6,"type":"Mine","country":"Bolivia","commodity":"tin","mineral":"Others","risk":"Elevated"},{"id":"ICMM01033","name":"San Francisco Mine","group":"","lat":-16.948,"lon":-67.516,"type":"Mine","country":"Bolivia","commodity":"tin","mineral":"Others","risk":"Elevated"},{"id":"ICMM01035","name":"Colombiri Mine","group":"","lat":-16.948,"lon":-67.3,"type":"Mine","country":"Bolivia","commodity":"tin","mineral":"Others","risk":"Elevated"},{"id":"ICMM01036","name":"Laramcota Mine","group":"","lat":-16.964,"lon":-67.383,"type":"Mine","country":"Bolivia","commodity":"tin","mineral":"Others","risk":"Elevated"},{"id":"ICMM01037","name":"Argentina Mine","group":"","lat":-16.981,"lon":-67.483,"type":"Mine","country":"Bolivia","commodity":"tungsten","mineral":"Others","risk":"High"},{"id":"ICMM01038","name":"Caracoles","group":"","lat":-16.981,"lon":-67.266,"type":"Mine","country":"Bolivia","commodity":"tin","mineral":"Others","risk":"Elevated"},{"id":"ICMM01039","name":"Bajaderia Mine","group":"Bajaderia Mine;Pepita","lat":-16.989,"lon":-67.223,"type":"Mine","country":"Bolivia","commodity":"tin","mineral":"Others","risk":"Elevated"},{"id":"ICMM01040","name":"Donata Mine","group":"","lat":-16.991,"lon":-66.85,"type":"Mine","country":"Bolivia","commodity":"zinc","mineral":"Others","risk":"Elevated"},{"id":"ICMM01042","name":"Barroscota Mine","group":"","lat":-16.992,"lon":-67.366,"type":"Mine","country":"Bolivia","commodity":"tin","mineral":"Others","risk":"Elevated"},{"id":"ICMM01045","name":"San Juan Ltd.","group":"","lat":-17.014,"lon":-67.316,"type":"Mine","country":"Bolivia","commodity":"tin","mineral":"Others","risk":"Elevated"},{"id":"ICMM01046","name":"Viloco Sn","group":"","lat":-17.031,"lon":-67.583,"type":"Mine","country":"Bolivia","commodity":"tin","mineral":"Others","risk":"Elevated"},{"id":"ICMM01047","name":"Hilda Mine","group":"","lat":-17.036,"lon":-67.33,"type":"Mine","country":"Bolivia","commodity":"tin","mineral":"Others","risk":"Elevated"},{"id":"ICMM01048","name":"Cuajone Mine","group":"Cuajone Mine;Cuajone;Cuajone;Cuajone;Cuajone;Cuajone SX EW","lat":-17.041,"lon":-70.707,"type":"Mine","country":"Peru","commodity":"copper","mineral":"Copper","risk":"Elevated"},{"id":"ICMM01051","name":"Purisima Mine","group":"","lat":-17.061,"lon":-67.05,"type":"Mine","country":"Bolivia","commodity":"tin","mineral":"Others","risk":"Elevated"},{"id":"ICMM01052","name":"Chambillaya Mine","group":"","lat":-17.061,"lon":-67.305,"type":"Mine","country":"Bolivia","commodity":"tungsten","mineral":"Others","risk":"High"},{"id":"ICMM01055","name":"Quellaveco, Yacimiento","group":"Quellaveco, Yacimiento;Quellaveco;Quellaveco project;Quellaveco","lat":-17.101,"lon":-70.616,"type":"Mine","country":"Peru","commodity":"copper","mineral":"Copper","risk":"Elevated"},{"id":"ICMM01063","name":"Copacabana Mine","group":"Copacabana Mine;Todos Santos Mine;Salla Cuchu Mine","lat":-17.154,"lon":-66.997,"type":"Mine","country":"Bolivia","commodity":"tin","mineral":"Others","risk":"Elevated"},{"id":"ICMM01064","name":"Sayaquira","group":"","lat":-17.146,"lon":-67.32,"type":"Mine","country":"Bolivia","commodity":"tin","mineral":"Others","risk":"Elevated"},{"id":"ICMM01065","name":"Solitaria","group":"Solitaria;Cruz Roja","lat":-17.147,"lon":-67.29,"type":"Mine","country":"Bolivia","commodity":"tin","mineral":"Others","risk":"Elevated"},{"id":"ICMM01066","name":"Corocoro District","group":"Corocoro District;Corocoro","lat":-17.177,"lon":-68.447,"type":"Mine","country":"Bolivia","commodity":"copper","mineral":"Copper","risk":"Elevated"},{"id":"ICMM01069","name":"Pajchiri","group":"","lat":-17.198,"lon":-67.05,"type":"Mine","country":"Bolivia","commodity":"tungsten","mineral":"Others","risk":"High"},{"id":"ICMM01075","name":"Toquepala Mine","group":"Toquepala Mine;Toquepala;Toquepala;Toquepala;Toquepala;Toquepala SX EW","lat":-17.254,"lon":-70.613,"type":"Mine","country":"Peru","commodity":"copper","mineral":"Copper","risk":"Elevated"},{"id":"ICMM01084","name":"Buena Esperanza Mine","group":"","lat":-17.331,"lon":-66.833,"type":"Mine","country":"Bolivia","commodity":"tin","mineral":"Others","risk":"Elevated"},{"id":"ICMM01090","name":"Laurani Mine","group":"","lat":-17.379,"lon":-67.775,"type":"Mine","country":"Bolivia","commodity":"copper","mineral":"Copper","risk":"Elevated"},{"id":"ICMM01091","name":"Colquiri Mine","group":"Colquiri Mine;Colquiri","lat":-17.391,"lon":-67.123,"type":"Mine","country":"Bolivia","commodity":"tin","mineral":"Others","risk":"Elevated"},{"id":"ICMM01094","name":"Colquiri","group":"","lat":-17.397,"lon":-67.148,"type":"Mine","country":"Bolivia","commodity":"silver","mineral":"Others","risk":"Elevated"},{"id":"ICMM01103","name":"Morro Agudo","group":"Morro Agudo;Paracatuzn;Morro Agudo;Morro Agudo","lat":-17.495,"lon":-46.817,"type":"Mine","country":"Brazil","commodity":"zinc","mineral":"Others","risk":"Elevated"},{"id":"ICMM01104","name":"Antonia Mine","group":"","lat":-17.497,"lon":-67.022,"type":"Mine","country":"Bolivia","commodity":"tungsten","mineral":"Others","risk":"High"},{"id":"ICMM01113","name":"Crucero Ii Mine","group":"","lat":-17.664,"lon":-70.016,"type":"Mine","country":"Peru","commodity":"silver","mineral":"Others","risk":"Elevated"},{"id":"ICMM01116","name":"Mata Da Corda","group":"","lat":-17.698,"lon":-45.399,"type":"Mine","country":"Brazil","commodity":"platinum","mineral":"Others","risk":"Elevated"},{"id":"ICMM01119","name":"San Francisco Mine","group":"","lat":-17.728,"lon":-66.909,"type":"Mine","country":"Bolivia","commodity":"tungsten","mineral":"Others","risk":"High"},{"id":"ICMM01120","name":"Teofilio Otoni Dist","group":"","lat":-17.731,"lon":-41.432,"type":"Mine","country":"Brazil","commodity":"platinum","mineral":"Others","risk":"Elevated"},{"id":"ICMM01121","name":"San Felipe Mine","group":"","lat":-17.739,"lon":-66.85,"type":"Mine","country":"Bolivia","commodity":"tungsten","mineral":"Others","risk":"High"},{"id":"ICMM01125","name":"Inti Raymi Mine","group":"Inti Raymi Mine;Kori Kollu Mine;Kori Kollo","lat":-17.793,"lon":-67.452,"type":"Mine","country":"Bolivia","commodity":"silver","mineral":"Others","risk":"Elevated"},{"id":"ICMM01130","name":"Torosentado Mine","group":"","lat":-17.822,"lon":-66.375,"type":"Mine","country":"Bolivia","commodity":"tin","mineral":"Others","risk":"Elevated"},{"id":"ICMM01137","name":"Cerro Grande","group":"Cerro Grande;Berenguela","lat":-17.888,"lon":-66.429,"type":"Mine","country":"Bolivia","commodity":"tin","mineral":"Others","risk":"Elevated"},{"id":"ICMM01139","name":"San Jose De Oruro Mine","group":"San Jose De Oruro Mine;Itos Mill Tailings;Itos Tailings","lat":-17.959,"lon":-67.126,"type":"Mine","country":"Bolivia","commodity":"tin","mineral":"Others","risk":"Elevated"},{"id":"ICMM01141","name":"Vazante","group":"Fazenda Salobra;Vazante;Vazante Deposit","lat":-17.97,"lon":-46.844,"type":"Mine","country":"Brazil","commodity":"zinc","mineral":"Others","risk":"Elevated"},{"id":"ICMM01142","name":"Oruro","group":"","lat":-17.998,"lon":-67.1,"type":"Mine","country":"Bolivia","commodity":"copper","mineral":"Copper","risk":"Elevated"},{"id":"ICMM01145","name":"Santa Clara Mine","group":"","lat":-18.038,"lon":-68.336,"type":"Mine","country":"Bolivia","commodity":"copper","mineral":"Copper","risk":"Elevated"},{"id":"ICMM01146","name":"Aullagas De Oruro Mine","group":"","lat":-18.045,"lon":-66.518,"type":"Mine","country":"Bolivia","commodity":"tin","mineral":"Others","risk":"Elevated"},{"id":"ICMM01147","name":"Japo Mine","group":"Japo Mine;Negro Pabellon Mine;Santa Fe Mine;Japo","lat":-18.061,"lon":-66.844,"type":"Mine","country":"Bolivia","commodity":"silver","mineral":"Others","risk":"Elevated"},{"id":"ICMM01148","name":"Rio Maracana","group":"","lat":-18.064,"lon":-41.132,"type":"Mine","country":"Brazil","commodity":"platinum","mineral":"Others","risk":"Elevated"},{"id":"ICMM01151","name":"La Reyna","group":"","lat":-18.098,"lon":-66.9,"type":"Mine","country":"Bolivia","commodity":"tin","mineral":"Others","risk":"Elevated"},{"id":"ICMM01152","name":"San Pablo","group":"San Pablo;Negro Pabellon","lat":-18.1,"lon":-66.85,"type":"Mine","country":"Bolivia","commodity":"tin","mineral":"Others","risk":"Elevated"},{"id":"ICMM01154","name":"Excelsior Mine","group":"","lat":-18.114,"lon":-66.765,"type":"Mine","country":"Bolivia","commodity":"tin","mineral":"Others","risk":"Elevated"},{"id":"ICMM01157","name":"Morococala Mine","group":"","lat":-18.139,"lon":-66.786,"type":"Mine","country":"Bolivia","commodity":"tin","mineral":"Others","risk":"Elevated"},{"id":"ICMM01158","name":"Morococala Santa Fe Japo Mines","group":"","lat":-18.164,"lon":-66.833,"type":"Mine","country":"Bolivia","commodity":"tin","mineral":"Others","risk":"Elevated"},{"id":"ICMM01160","name":"Morococala","group":"","lat":-18.178,"lon":-66.8,"type":"Mine","country":"Bolivia","commodity":"tin","mineral":"Others","risk":"Elevated"},{"id":"ICMM01162","name":"Huanuni","group":"","lat":-18.228,"lon":-66.8,"type":"Mine","country":"Bolivia","commodity":"tin","mineral":"Others","risk":"Elevated"},{"id":"ICMM01164","name":"Candelaria","group":"","lat":-18.258,"lon":-67.0,"type":"Mine","country":"Bolivia","commodity":"tin","mineral":"Others","risk":"Elevated"},{"id":"ICMM01166","name":"Huanuni Mine","group":"Huanuni Mine;Porvenir and Huanuni Mill Tailings;Huanuni","lat":-18.275,"lon":-66.824,"type":"Mine","country":"Bolivia","commodity":"tin","mineral":"Others","risk":"Elevated"},{"id":"ICMM01167","name":"San Florencio","group":"","lat":-18.298,"lon":-66.68,"type":"Mine","country":"Bolivia","commodity":"tin","mineral":"Others","risk":"Elevated"},{"id":"ICMM01169","name":"El Centenario","group":"","lat":-18.314,"lon":-66.583,"type":"Mine","country":"Bolivia","commodity":"tin","mineral":"Others","risk":"Elevated"},{"id":"ICMM01170","name":"Triunfo Mine","group":"Triunfo Mine;Poopo District;San Juan Mine;Poopo","lat":-18.365,"lon":-66.948,"type":"Mine","country":"Bolivia","commodity":"tin","mineral":"Others","risk":"Elevated"},{"id":"ICMM01171","name":"Pucro","group":"","lat":-18.358,"lon":-66.44,"type":"Mine","country":"Bolivia","commodity":"tin","mineral":"Others","risk":"Elevated"},{"id":"ICMM01172","name":"Bolivian Tin Mines Property","group":"","lat":-18.36,"lon":-66.229,"type":"Mine","country":"Bolivia","commodity":"tin","mineral":"Others","risk":"Elevated"},{"id":"ICMM01173","name":"Patino I Mine","group":"","lat":-18.375,"lon":-66.906,"type":"Mine","country":"Bolivia","commodity":"tin","mineral":"Others","risk":"Elevated"},{"id":"ICMM01174","name":"Santa Barbara","group":"","lat":-18.398,"lon":-66.466,"type":"Mine","country":"Bolivia","commodity":"tin","mineral":"Others","risk":"Elevated"},{"id":"ICMM01175","name":"Llallagua Catavi","group":"","lat":-18.403,"lon":-66.61,"type":"Mine","country":"Bolivia","commodity":"tin","mineral":"Others","risk":"Elevated"},{"id":"ICMM01176","name":"El Porvenir Mine","group":"","lat":-18.414,"lon":-66.916,"type":"Mine","country":"Bolivia","commodity":"tin","mineral":"Others","risk":"Elevated"},{"id":"ICMM01177","name":"Catavi Siglo Xx","group":"","lat":-18.414,"lon":-66.583,"type":"Mine","country":"Bolivia","commodity":"tin","mineral":"Others","risk":"Elevated"},{"id":"ICMM01178","name":"Llallagua Mine","group":"Llallagua Mine;Siglo XX","lat":-18.451,"lon":-66.601,"type":"Mine","country":"Bolivia","commodity":"tin","mineral":"Others","risk":"Elevated"},{"id":"ICMM01179","name":"Rosario Mine","group":"","lat":-18.448,"lon":-66.366,"type":"Mine","country":"Bolivia","commodity":"tin","mineral":"Others","risk":"Elevated"},{"id":"ICMM01182","name":"Bolivar Mine (Antequera)","group":"Bolivar Mine;Bolivar;Venus Mine;Avicaya Antequera Totoral Mines;Totoral Mine;Bolivar Mine (Antequera)","lat":-18.472,"lon":-66.842,"type":"Mine","country":"Bolivia","commodity":"zinc","mineral":"Others","risk":"Elevated"},{"id":"ICMM01183","name":"Porvenir Mine","group":"","lat":-18.462,"lon":-66.922,"type":"Mine","country":"Bolivia","commodity":"tin","mineral":"Others","risk":"Elevated"},{"id":"ICMM01184","name":"Pucro Mine","group":"Pucro Mine;Cruz De Saya Mine","lat":-18.473,"lon":-66.466,"type":"Mine","country":"Bolivia","commodity":"tin","mineral":"Others","risk":"Elevated"},{"id":"ICMM01185","name":"Vilacota Mine","group":"","lat":-18.475,"lon":-66.652,"type":"Mine","country":"Bolivia","commodity":"tin","mineral":"Others","risk":"Elevated"},{"id":"ICMM01188","name":"Estalsa Tin Mine","group":"","lat":-18.498,"lon":-67.05,"type":"Mine","country":"Bolivia","commodity":"tin","mineral":"Others","risk":"Elevated"},{"id":"ICMM01189","name":"Cristo Gran Poder Mine","group":"Cristo Gran Poder Mine;Elena Mine;Avicaya;Asientos;Totoral","lat":-18.513,"lon":-66.862,"type":"Mine","country":"Bolivia","commodity":"tin","mineral":"Others","risk":"Elevated"},{"id":"ICMM01190","name":"Victoria Mine","group":"","lat":-18.515,"lon":-66.319,"type":"Mine","country":"Bolivia","commodity":"tin","mineral":"Others","risk":"Elevated"},{"id":"ICMM01191","name":"Estalsa Mine","group":"Estalsa Mine;Chunchu;Totoral;Avicaya","lat":-18.545,"lon":-66.838,"type":"Mine","country":"Bolivia","commodity":"tin","mineral":"Others","risk":"Elevated"},{"id":"ICMM01192","name":"Estalsa Dredgeavicaya","group":"","lat":-18.548,"lon":-66.9,"type":"Mine","country":"Bolivia","commodity":"tin","mineral":"Others","risk":"Elevated"},{"id":"ICMM01197","name":"Pacajake Mine","group":"","lat":-18.598,"lon":-66.866,"type":"Mine","country":"Bolivia","commodity":"silver","mineral":"Others","risk":"Elevated"},{"id":"ICMM01199","name":"Sao Matheus River","group":"","lat":-18.648,"lon":-39.999,"type":"Mine","country":"Brazil","commodity":"platinum","mineral":"Others","risk":"Elevated"},{"id":"ICMM01202","name":"Aliada Mine","group":"Aliada Mine;Colquechaca;Colquechaca Mine","lat":-18.69,"lon":-66.021,"type":"Mine","country":"Bolivia","commodity":"tin","mineral":"Others","risk":"Elevated"},{"id":"ICMM01206","name":"Lipez Huaico","group":"","lat":-18.778,"lon":-65.779,"type":"Mine","country":"Bolivia","commodity":"tin","mineral":"Others","risk":"Elevated"},{"id":"ICMM01208","name":"Comsur","group":"","lat":-18.831,"lon":-65.783,"type":"Mine","country":"Bolivia","commodity":"tin","mineral":"Others","risk":"Elevated"},{"id":"ICMM01211","name":"Ocuri Mine","group":"","lat":-18.864,"lon":-65.8,"type":"Mine","country":"Bolivia","commodity":"tin","mineral":"Others","risk":"Elevated"},{"id":"ICMM01213","name":"Maria Teresa Mine","group":"","lat":-18.948,"lon":-66.718,"type":"Mine","country":"Bolivia","commodity":"tin","mineral":"Others","risk":"Elevated"},{"id":"ICMM01215","name":"Distrito Maragua","group":"","lat":-18.958,"lon":-65.679,"type":"Mine","country":"Bolivia","commodity":"tin","mineral":"Others","risk":"Elevated"},{"id":"ICMM01216","name":"Maragua Mine","group":"Maragua Mine;Maragua","lat":-18.981,"lon":-65.783,"type":"Mine","country":"Bolivia","commodity":"silver","mineral":"Others","risk":"Elevated"},{"id":"ICMM01221","name":"Morro Pilar","group":"","lat":-19.231,"lon":-43.382,"type":"Mine","country":"Brazil","commodity":"platinum","mineral":"Others","risk":"Elevated"},{"id":"ICMM01227","name":"Canutillos","group":"","lat":-19.408,"lon":-65.449,"type":"Mine","country":"Bolivia","commodity":"tin","mineral":"Others","risk":"Elevated"},{"id":"ICMM01228","name":"Machacamarca","group":"","lat":-19.413,"lon":-65.524,"type":"Mine","country":"Bolivia","commodity":"tin","mineral":"Others","risk":"Elevated"},{"id":"ICMM01229","name":"Arofilla","group":"","lat":-19.414,"lon":-65.799,"type":"Mine","country":"Bolivia","commodity":"tin","mineral":"Others","risk":"Elevated"},{"id":"ICMM01232","name":"Huari Huari Mine","group":"","lat":-19.448,"lon":-65.583,"type":"Mine","country":"Bolivia","commodity":"zinc","mineral":"Others","risk":"Elevated"},{"id":"ICMM01233","name":"Aroyofillo Mine","group":"","lat":-19.49,"lon":-65.801,"type":"Mine","country":"Bolivia","commodity":"tin","mineral":"Others","risk":"Elevated"},{"id":"ICMM01234","name":"El Paco","group":"","lat":-19.498,"lon":-65.955,"type":"Mine","country":"Bolivia","commodity":"tin","mineral":"Others","risk":"Elevated"},{"id":"ICMM01237","name":"San Luis Mine","group":"San Luis Mine;San Luis","lat":-19.572,"lon":-65.978,"type":"Mine","country":"Bolivia","commodity":"silver","mineral":"Others","risk":"Elevated"},{"id":"ICMM01239","name":"Unificada of Potosi","group":"Unificada of Potosi;Cerro Rico De Potosi District;San Bartolome;Unificada;San Bartolome;Potosi;Pailaviri;Cerro Rico;Potosi (Yuguang) Smelter","lat":-19.607,"lon":-65.743,"type":"Smelter","country":"Bolivia","commodity":"silver","mineral":"Others","risk":"Elevated"},{"id":"ICMM01252","name":"Munecirca","group":"","lat":-19.808,"lon":-65.679,"type":"Mine","country":"Bolivia","commodity":"tin","mineral":"Others","risk":"Elevated"},{"id":"ICMM01254","name":"Porco","group":"San Jose De Soras;Santo Santo Mine;Porco Mine;Porco;Illapa","lat":-19.814,"lon":-65.985,"type":"Mine","country":"Bolivia","commodity":"zinc","mineral":"Others","risk":"Elevated"},{"id":"ICMM01261","name":"Sahuatoma","group":"","lat":-19.997,"lon":-65.809,"type":"Mine","country":"Bolivia","commodity":"tin","mineral":"Others","risk":"Elevated"},{"id":"ICMM01264","name":"Cerro Colorado","group":"Cerro Colorado;Cerro Colorado (SxEw);Cerro Colorado","lat":-20.048,"lon":-69.26,"type":"Mine","country":"Chile","commodity":"copper","mineral":"Copper","risk":"Elevated"},{"id":"ICMM01268","name":"La Cascadas","group":"La Cascadas;Sagasca;La Cascada (Sagasca) (SX EW) Refinery","lat":-20.183,"lon":-69.335,"type":"Refinery","country":"Chile","commodity":"copper","mineral":"Copper","risk":"Elevated"},{"id":"ICMM01273","name":"San Lucas Mine","group":"","lat":-20.248,"lon":-65.133,"type":"Mine","country":"Bolivia","commodity":"zinc","mineral":"Others","risk":"Elevated"},{"id":"ICMM01285","name":"Santo Domingo","group":"","lat":-20.618,"lon":-66.11,"type":"Mine","country":"Bolivia","commodity":"tin","mineral":"Others","risk":"Elevated"},{"id":"ICMM01286","name":"Tasna","group":"","lat":-20.631,"lon":-66.316,"type":"Mine","country":"Bolivia","commodity":"tin","mineral":"Others","risk":"Elevated"},{"id":"ICMM01288","name":"Plasmar Mine","group":"","lat":-20.647,"lon":-67.644,"type":"Mine","country":"Bolivia","commodity":"silver","mineral":"Others","risk":"Elevated"},{"id":"ICMM01289","name":"San Pedro Mine","group":"","lat":-20.648,"lon":-66.233,"type":"Mine","country":"Bolivia","commodity":"tin","mineral":"Others","risk":"Elevated"},{"id":"ICMM01293","name":"Santa Ana Mine","group":"","lat":-20.908,"lon":-66.279,"type":"Mine","country":"Bolivia","commodity":"copper","mineral":"Copper","risk":"Elevated"},{"id":"ICMM01296","name":"Collahausi","group":"Collahausi;Pergolesi;Eduardo;Delirio;Lavaderos De Chiclla;Collahuasi;Collahuasi;Collahuasi","lat":-20.98,"lon":-68.713,"type":"Mine","country":"Chile","commodity":"copper","mineral":"Copper","risk":"Elevated"},{"id":"ICMM01298","name":"Chorolque Mine","group":"","lat":-20.956,"lon":-66.083,"type":"Mine","country":"Bolivia","commodity":"tin","mineral":"Others","risk":"Elevated"},{"id":"ICMM01301","name":"Quebrada Blanca","group":"Quebrada Blanca;Quebrada Blanca;Quebrada Blanca;Quebrada Blanca SX EW","lat":-21.002,"lon":-68.8,"type":"Mine","country":"Chile","commodity":"copper","mineral":"Copper","risk":"Elevated"},{"id":"ICMM01309","name":"San Cristobal","group":"Hedionda Mine;Animas Mine;Inca Mine;Toldos Mine;San Cristobal;San Cristobal","lat":-21.101,"lon":-67.207,"type":"Mine","country":"Bolivia","commodity":"zinc","mineral":"Others","risk":"Elevated"},{"id":"ICMM01310","name":"Volta Grande Mine","group":"","lat":-21.103,"lon":-44.548,"type":"Mine","country":"Brazil","commodity":"tin","mineral":"Others","risk":"Elevated"},{"id":"ICMM01320","name":"Ventillas Mine","group":"","lat":-21.364,"lon":-66.266,"type":"Mine","country":"Bolivia","commodity":"tin","mineral":"Others","risk":"Elevated"},{"id":"ICMM01326","name":"Farellon Mine","group":"","lat":-21.573,"lon":-67.416,"type":"Mine","country":"Bolivia","commodity":"copper","mineral":"Copper","risk":"Elevated"},{"id":"ICMM01336","name":"Mantos Blancos Mine","group":"","lat":-21.642,"lon":-67.053,"type":"Mine","country":"Bolivia","commodity":"copper","mineral":"Copper","risk":"Elevated"},{"id":"ICMM01338","name":"35eblo Viejo","group":"","lat":-21.664,"lon":-66.283,"type":"Mine","country":"Bolivia","commodity":"tungsten","mineral":"Others","risk":"High"},{"id":"ICMM01350","name":"Goyo Mine","group":"","lat":-21.825,"lon":-65.349,"type":"Mine","country":"Bolivia","commodity":"zinc","mineral":"Others","risk":"Elevated"},{"id":"ICMM01360","name":"Pratapolis and Liberdade Mines","group":"","lat":-21.997,"lon":-46.649,"type":"Mine","country":"Brazil","commodity":"nickel","mineral":"Nickel","risk":"Moderate"},{"id":"ICMM01364","name":"Tocopilla Cu Mine","group":"","lat":-22.078,"lon":-70.183,"type":"Mine","country":"Chile","commodity":"copper","mineral":"Copper","risk":"Elevated"},{"id":"ICMM01367","name":"Buena Esperanza","group":"","lat":-22.183,"lon":-70.21,"type":"Mine","country":"Chile","commodity":"copper","mineral":"Copper","risk":"Elevated"},{"id":"ICMM01369","name":"Radomiro Tomic","group":"Chuqui Norte;Radomiro Tomic;Radomiro Tomic","lat":-22.226,"lon":-68.888,"type":"Mine","country":"Chile","commodity":"copper","mineral":"Copper","risk":"Elevated"},{"id":"ICMM01372","name":"Chuquicamata","group":"San Pablo;Enchufe;Marina;Alicia Victoria;Chuquicamata;Chuquicamata;Mina Sur Mine;Codelco Norte;Chuquicamata;Chuquicamata refinery;Chuquicamata smelter;Chuquicamata;Chuquicamata Refinery;Chuquicamata SX EW;Codelco Norte SX EW","lat":-22.297,"lon":-68.903,"type":"Refinery","country":"Chile","commodity":"copper","mineral":"Copper","risk":"Elevated"},{"id":"ICMM01374","name":"Maria Elena Mine","group":"","lat":-22.314,"lon":-69.666,"type":"Mine","country":"Chile","commodity":"chromium","mineral":"Others","risk":"Elevated"},{"id":"ICMM01384","name":"Tuina","group":"Tuina;San Jose, Tuina Cu Mine;Porvenir Tuina;Santa Lucia;Trebol","lat":-22.538,"lon":-68.424,"type":"Mine","country":"Chile","commodity":"copper","mineral":"Copper","risk":"Elevated"},{"id":"ICMM01385","name":"Michilla","group":"Susana;Lince/Michilla;Michilla;Michilla/Lince;Michilla SX EW","lat":-22.678,"lon":-70.172,"type":"Mine","country":"Chile","commodity":"copper","mineral":"Copper","risk":"Elevated"},{"id":"ICMM01390","name":"Pirquitas","group":"Groupo Minero Pirquitas;Puna;Pirquitas;Pirquitas;Pircas Mine;Pircas Mine;Mina Pinquitas","lat":-22.701,"lon":-66.495,"type":"Mine","country":"Argentina","commodity":"silver","mineral":"Others","risk":"Elevated"},{"id":"ICMM01393","name":"Julia Maria","group":"Julia Maria;Julia Maria","lat":-22.748,"lon":-69.5,"type":"Mine","country":"Chile","commodity":"copper","mineral":"Copper","risk":"Elevated"},{"id":"ICMM01396","name":"Altar","group":"","lat":-22.816,"lon":-70.231,"type":"Mine","country":"Chile","commodity":"copper","mineral":"Copper","risk":"Elevated"},{"id":"ICMM01397","name":"Sierra Gorda","group":"Salvadora;Catalina Santiaguina;San Francisco;Sierra Gorda;Sierra Gorda","lat":-22.852,"lon":-69.341,"type":"Mine","country":"Chile","commodity":"copper","mineral":"Copper","risk":"Elevated"},{"id":"ICMM01399","name":"Itaguai","group":"","lat":-22.864,"lon":-43.782,"type":"Mine","country":"Brazil","commodity":"zinc","mineral":"Others","risk":"Elevated"},{"id":"ICMM01402","name":"Morro Do Niquel Mine","group":"","lat":-22.914,"lon":-46.649,"type":"Mine","country":"Brazil","commodity":"nickel","mineral":"Nickel","risk":"Moderate"},{"id":"ICMM01403","name":"Centinela","group":"El Tesoro;Leonor/Tesoro;Centinela;Centinela Oxide;Centinela Sulfide","lat":-22.959,"lon":-69.068,"type":"Mine","country":"Chile","commodity":"copper","mineral":"Copper","risk":"Elevated"},{"id":"ICMM01408","name":"La Oriental Mine","group":"La Oriental Mine;Quebrada Mine;Yareta Mine;El Aguilar Mine;Aguilar","lat":-23.192,"lon":-65.702,"type":"Mine","country":"Argentina","commodity":"silver","mineral":"Others","risk":"Elevated"},{"id":"ICMM01411","name":"Aguilar","group":"Rincon Mine;Aguilar","lat":-23.22,"lon":-65.689,"type":"Mine","country":"Argentina","commodity":"zinc","mineral":"Others","risk":"Elevated"},{"id":"ICMM01417","name":"Baguedano Cu Mine","group":"","lat":-23.331,"lon":-69.833,"type":"Mine","country":"Chile","commodity":"copper","mineral":"Copper","risk":"Elevated"},{"id":"ICMM01419","name":"Lomas Bayas","group":"Lomas Bayas;Fortuna;Lomas Bayas;Lomas Bayas","lat":-23.433,"lon":-69.519,"type":"Mine","country":"Chile","commodity":"copper","mineral":"Copper","risk":"Elevated"},{"id":"ICMM01420","name":"Mantos Blancos","group":"Mantos Blancos;Mantos Blancos;Mantos Blancos;Mantos Blancos;Mantos Blancos;Mantos Blancos Smelter;Mantos Blancos SX EW","lat":-23.434,"lon":-70.066,"type":"Mine","country":"Chile","commodity":"copper","mineral":"Copper","risk":"Elevated"},{"id":"ICMM01425","name":"Jardin Magallanes","group":"","lat":-23.981,"lon":-69.491,"type":"Mine","country":"Chile","commodity":"silver","mineral":"Others","risk":"Elevated"},{"id":"ICMM01427","name":"Mina Santa Blandina","group":"","lat":-24.047,"lon":-48.832,"type":"Mine","country":"Brazil","commodity":"copper","mineral":"Copper","risk":"Elevated"},{"id":"ICMM01433","name":"Escondida","group":"La Escondida;Escondida;Escondida;Escondida;Escondida SX EW","lat":-24.261,"lon":-69.079,"type":"Mine","country":"Chile","commodity":"copper","mineral":"Copper","risk":"Elevated"},{"id":"ICMM01439","name":"Panelas","group":"","lat":-24.497,"lon":-51.499,"type":"Smelter","country":"Brazil","commodity":"zinc","mineral":"Others","risk":"Elevated"},{"id":"ICMM01448","name":"Montecristo","group":"Montecristo;Santa Rosa;Montecristo","lat":-24.964,"lon":-70.394,"type":"Mine","country":"Chile","commodity":"copper","mineral":"Copper","risk":"Elevated"},{"id":"ICMM01456","name":"Rosario","group":"","lat":-25.398,"lon":-70.205,"type":"Mine","country":"Chile","commodity":"copper","mineral":"Copper","risk":"Elevated"},{"id":"ICMM01458","name":"Union","group":"","lat":-25.589,"lon":-70.363,"type":"Mine","country":"Chile","commodity":"copper","mineral":"Copper","risk":"Elevated"},{"id":"ICMM01459","name":"Progreso","group":"","lat":-25.631,"lon":-70.466,"type":"Mine","country":"Chile","commodity":"copper","mineral":"Copper","risk":"Elevated"},{"id":"ICMM01461","name":"Lolita","group":"Lolita;Gloria","lat":-25.668,"lon":-69.455,"type":"Mine","country":"Chile","commodity":"silver","mineral":"Others","risk":"Elevated"},{"id":"ICMM01465","name":"Franke","group":"Frankenstein;Franke;Franke;Altamira;Franke","lat":-25.834,"lon":-69.865,"type":"Mine","country":"Chile","commodity":"copper","mineral":"Copper","risk":"Elevated"},{"id":"ICMM01467","name":"El Rincon","group":"","lat":-26.168,"lon":-70.245,"type":"Mine","country":"Chile","commodity":"copper","mineral":"Copper","risk":"Elevated"},{"id":"ICMM01468","name":"Quebrada De Las Salinas","group":"","lat":-26.2,"lon":-69.695,"type":"Mine","country":"Chile","commodity":"silver","mineral":"Others","risk":"Elevated"},{"id":"ICMM01469","name":"Salvador","group":"El Salvador;El Salvador Mine;Salvador;Salvador;Salvador SX EW","lat":-26.249,"lon":-69.569,"type":"Mine","country":"Chile","commodity":"copper","mineral":"Copper","risk":"Elevated"},{"id":"ICMM01470","name":"Todos Los Santos","group":"","lat":-26.277,"lon":-70.145,"type":"Mine","country":"Chile","commodity":"copper","mineral":"Copper","risk":"Elevated"},{"id":"ICMM01478","name":"Mantoverde","group":"Manto Verde;Mantoverde;Mantoverde;Mantoverde;Mantoverde SX EW","lat":-26.556,"lon":-70.32,"type":"Mine","country":"Chile","commodity":"copper","mineral":"Copper","risk":"Elevated"},{"id":"ICMM01483","name":"Berta Iii","group":"","lat":-26.713,"lon":-70.052,"type":"Mine","country":"Chile","commodity":"copper","mineral":"Copper","risk":"Elevated"},{"id":"ICMM01484","name":"Tucumana","group":"Tucumana;Puntilla Matilde;Providencia O San Pablo;Delirio","lat":-26.737,"lon":-69.829,"type":"Mine","country":"Chile","commodity":"copper","mineral":"Copper","risk":"Elevated"},{"id":"ICMM01492","name":"Hilda","group":"","lat":-26.898,"lon":-69.944,"type":"Mine","country":"Chile","commodity":"copper","mineral":"Copper","risk":"Elevated"},{"id":"ICMM01495","name":"Candelaria","group":"","lat":-26.981,"lon":-69.683,"type":"Mine","country":"Chile","commodity":"copper","mineral":"Copper","risk":"Elevated"},{"id":"ICMM01497","name":"Paraguaya Rosa Helena","group":"Paraguaya Rosa Helena;Caupolican Rincon;Descubridora Nueva;El Roble;Tocoguaico","lat":-27.037,"lon":-70.55,"type":"Mine","country":"Chile","commodity":"copper","mineral":"Copper","risk":"Elevated"},{"id":"ICMM01503","name":"Carrera Pinto","group":"","lat":-27.104,"lon":-69.933,"type":"Mine","country":"Chile","commodity":"copper","mineral":"Copper","risk":"Elevated"},{"id":"ICMM01508","name":"San Jose Nueva","group":"San Jose Nueva;San Jose","lat":-27.154,"lon":-70.493,"type":"Mine","country":"Chile","commodity":"copper","mineral":"Copper","risk":"Elevated"},{"id":"ICMM01510","name":"Marte","group":"Marte;Marte;Lobo Marte","lat":-27.17,"lon":-69.027,"type":"Mine","country":"Chile","commodity":"copper","mineral":"Copper","risk":"Elevated"},{"id":"ICMM01519","name":"Venado Sur","group":"","lat":-27.27,"lon":-69.993,"type":"Mine","country":"Chile","commodity":"copper","mineral":"Copper","risk":"Elevated"},{"id":"ICMM01524","name":"Maria Victoria","group":"","lat":-27.307,"lon":-69.926,"type":"Mine","country":"Chile","commodity":"silver","mineral":"Others","risk":"Elevated"},{"id":"ICMM01527","name":"Honorina","group":"","lat":-27.349,"lon":-70.034,"type":"Mine","country":"Chile","commodity":"copper","mineral":"Copper","risk":"Elevated"},{"id":"ICMM01529","name":"Cerro Da Catinga, Macico De Aguti","group":"","lat":-27.364,"lon":-49.082,"type":"Mine","country":"Brazil","commodity":"tungsten","mineral":"Others","risk":"High"},{"id":"ICMM01533","name":"Los Azules Romero","group":"","lat":-27.391,"lon":-69.847,"type":"Refinery","country":"Chile","commodity":"copper","mineral":"Copper","risk":"Elevated"},{"id":"ICMM01534","name":"Paipote Cu Mine","group":"","lat":-27.398,"lon":-70.3,"type":"Smelter","country":"Chile","commodity":"copper","mineral":"Copper","risk":"Elevated"},{"id":"ICMM01536","name":"La Union","group":"La Union;Dos Amigos","lat":-27.407,"lon":-70.212,"type":"Mine","country":"Chile","commodity":"copper","mineral":"Copper","risk":"Elevated"},{"id":"ICMM01538","name":"Andacollito","group":"","lat":-27.414,"lon":-70.341,"type":"Mine","country":"Chile","commodity":"copper","mineral":"Copper","risk":"Elevated"},{"id":"ICMM01541","name":"Punta del Cobre","group":"Venus;Resguardo;Ojos Del Salado;San Antonio;Cadena;Candelaria;Candelaria;El Bronce de Atacama;Punta del Cobre;Alcaparrosa;Candelaria;Punta del Cobre;Atacama Kozan;Candelaria Tailings;Carola;Punta del Cobre SX EW;San Jose Plant","lat":-27.494,"lon":-70.271,"type":"Mine","country":"Chile","commodity":"copper","mineral":"Copper","risk":"Elevated"},{"id":"ICMM01542","name":"Santo Tomas","group":"","lat":-27.455,"lon":-70.336,"type":"Mine","country":"Chile","commodity":"copper","mineral":"Copper","risk":"Elevated"},{"id":"ICMM01553","name":"Ano Nuevo","group":"","lat":-27.552,"lon":-70.433,"type":"Mine","country":"Chile","commodity":"copper","mineral":"Copper","risk":"Elevated"},{"id":"ICMM01554","name":"Patricia","group":"Patricia;La Escondida;Odiosa;Farola","lat":-27.579,"lon":-70.371,"type":"Mine","country":"Chile","commodity":"copper","mineral":"Copper","risk":"Elevated"},{"id":"ICMM01557","name":"Las Tortolas","group":"","lat":-27.6,"lon":-70.39,"type":"Mine","country":"Chile","commodity":"copper","mineral":"Copper","risk":"Elevated"},{"id":"ICMM01563","name":"Cabeza De Vaca","group":"","lat":-27.648,"lon":-70.036,"type":"Mine","country":"Chile","commodity":"silver","mineral":"Others","risk":"Elevated"},{"id":"ICMM01564","name":"La Tita","group":"","lat":-27.653,"lon":-70.011,"type":"Mine","country":"Chile","commodity":"silver","mineral":"Others","risk":"Elevated"},{"id":"ICMM01565","name":"El Progreso Argentino Mine","group":"","lat":-27.654,"lon":-67.337,"type":"Mine","country":"Argentina","commodity":"tin","mineral":"Others","risk":"Elevated"},{"id":"ICMM01566","name":"Sonia","group":"Sonia;Hildebrando","lat":-27.661,"lon":-70.098,"type":"Mine","country":"Chile","commodity":"copper","mineral":"Copper","risk":"Elevated"},{"id":"ICMM01572","name":"Remales","group":"","lat":-27.714,"lon":-69.97,"type":"Mine","country":"Chile","commodity":"silver","mineral":"Others","risk":"Elevated"},{"id":"ICMM01576","name":"El Penon","group":"","lat":-27.811,"lon":-69.986,"type":"Smelter","country":"Chile","commodity":"silver","mineral":"Others","risk":"Elevated"},{"id":"ICMM01582","name":"Andacolla Mine","group":"","lat":-27.876,"lon":-67.465,"type":"Mine","country":"Argentina","commodity":"tungsten","mineral":"Others","risk":"High"},{"id":"ICMM01589","name":"Veta Del Agua","group":"Veta Del Agua;Armonia Santa Rosa;Carrizal Alto","lat":-28.085,"lon":-70.901,"type":"Mine","country":"Chile","commodity":"copper","mineral":"Copper","risk":"Elevated"},{"id":"ICMM01593","name":"Taisanita 2","group":"","lat":-28.295,"lon":-71.087,"type":"Smelter","country":"Chile","commodity":"silver","mineral":"Others","risk":"Elevated"},{"id":"ICMM01599","name":"Estrella","group":"","lat":-28.434,"lon":-70.066,"type":"Mine","country":"Chile","commodity":"copper","mineral":"Copper","risk":"Elevated"},{"id":"ICMM01602","name":"Vallenar Cu Mine","group":"","lat":-28.564,"lon":-70.783,"type":"Mine","country":"Chile","commodity":"copper","mineral":"Copper","risk":"Elevated"},{"id":"ICMM01606","name":"Santa Rosa","group":"","lat":-28.671,"lon":-71.169,"type":"Mine","country":"Chile","commodity":"copper","mineral":"Copper","risk":"Elevated"},{"id":"ICMM01608","name":"San Antonio","group":"","lat":-28.739,"lon":-70.611,"type":"Mine","country":"Chile","commodity":"copper","mineral":"Copper","risk":"Elevated"},{"id":"ICMM01611","name":"Esperanza","group":"Esperanza;Mina Daniela","lat":-28.849,"lon":-70.832,"type":"Mine","country":"Chile","commodity":"copper","mineral":"Copper","risk":"Elevated"},{"id":"ICMM01614","name":"Ballena San Ramon","group":"","lat":-28.853,"lon":-70.739,"type":"Mine","country":"Chile","commodity":"silver","mineral":"Others","risk":"Elevated"},{"id":"ICMM01631","name":"La Josefa, Mina","group":"","lat":-29.598,"lon":-67.55,"type":"Mine","country":"Argentina","commodity":"tungsten","mineral":"Others","risk":"High"},{"id":"ICMM01639","name":"Perlitas","group":"","lat":-29.831,"lon":-71.15,"type":"Mine","country":"Chile","commodity":"copper","mineral":"Copper","risk":"Elevated"},{"id":"ICMM01640","name":"San Luis","group":"San Luis;Lambert","lat":-29.842,"lon":-71.094,"type":"Mine","country":"Chile","commodity":"copper","mineral":"Copper","risk":"Elevated"},{"id":"ICMM01649","name":"San Agustin","group":"San Agustin;Verde","lat":-30.091,"lon":-71.195,"type":"Mine","country":"Chile","commodity":"copper","mineral":"Copper","risk":"Elevated"},{"id":"ICMM01652","name":"Santa Isabel","group":"Santa Isabel;Arenilla Vein","lat":-30.194,"lon":-71.089,"type":"Mine","country":"Chile","commodity":"copper","mineral":"Copper","risk":"Elevated"},{"id":"ICMM01656","name":"Carmen de Andacollo","group":"Coipa;Toro Vein;Andacollo Copper;Carmen de Andacollo;Carmen de Andacollo;CMD;Carmen de Andacollo;Carmen de Andacollo SX EW","lat":-30.244,"lon":-71.093,"type":"Mine","country":"Chile","commodity":"copper","mineral":"Copper","risk":"Elevated"},{"id":"ICMM01657","name":"Las Lauchas","group":"","lat":-30.278,"lon":-71.149,"type":"Mine","country":"Chile","commodity":"copper","mineral":"Copper","risk":"Elevated"},{"id":"ICMM01662","name":"Campinas","group":"","lat":-30.664,"lon":-52.999,"type":"Mine","country":"Brazil","commodity":"tin","mineral":"Others","risk":"Elevated"},{"id":"ICMM01667","name":"Punitaqui","group":"Carlos;Cenizas 1 3;Pericote;Punitaqui","lat":-30.844,"lon":-71.224,"type":"Mine","country":"Chile","commodity":"copper","mineral":"Copper","risk":"Elevated"},{"id":"ICMM01669","name":"Minas Luis Uruguai and Cemiterio","group":"","lat":-30.914,"lon":-53.432,"type":"Mine","country":"Brazil","commodity":"copper","mineral":"Copper","risk":"Elevated"},{"id":"ICMM01670","name":"Cuatro Amigos","group":"","lat":-30.939,"lon":-69.602,"type":"Mine","country":"Argentina","commodity":"zinc","mineral":"Others","risk":"Elevated"},{"id":"ICMM01676","name":"Alumbrera","group":"","lat":-31.348,"lon":-69.65,"type":"Mine","country":"Argentina","commodity":"zinc","mineral":"Others","risk":"Elevated"},{"id":"ICMM01682","name":"Alta Gracia Platinum Mine","group":"","lat":-31.697,"lon":-64.416,"type":"Mine","country":"Argentina","commodity":"platinum","mineral":"Others","risk":"Elevated"},{"id":"ICMM01683","name":"Los Pelambres","group":"Los Pelambres;Los Pelambres;Los Pelambres;Los Pelambres","lat":-31.716,"lon":-70.492,"type":"Mine","country":"Chile","commodity":"copper","mineral":"Copper","risk":"Elevated"},{"id":"ICMM01685","name":"Ojo De Oro Oregano","group":"","lat":-32.006,"lon":-70.991,"type":"Mine","country":"Chile","commodity":"copper","mineral":"Copper","risk":"Elevated"},{"id":"ICMM01686","name":"Campanario","group":"","lat":-32.014,"lon":-71.108,"type":"Mine","country":"Chile","commodity":"copper","mineral":"Copper","risk":"Elevated"},{"id":"ICMM01692","name":"Paramillo De Uspallata Pb, Zn, Ag Mine","group":"","lat":-32.462,"lon":-69.137,"type":"Mine","country":"Argentina","commodity":"silver","mineral":"Copper","risk":"Elevated"},{"id":"ICMM01693","name":"Los Avestruces Las Asperezas","group":"","lat":-32.597,"lon":-66.116,"type":"Mine","country":"Argentina","commodity":"tungsten","mineral":"Others","risk":"High"},{"id":"ICMM01695","name":"Soldado","group":"Soldado;El Soldado;El Soldado;El Soldado SX EW","lat":-32.648,"lon":-71.112,"type":"Mine","country":"Chile","commodity":"copper","mineral":"Copper","risk":"Elevated"},{"id":"ICMM01696","name":"Los Condores W Mine","group":"","lat":-32.647,"lon":-65.299,"type":"Mine","country":"Argentina","commodity":"tungsten","mineral":"Others","risk":"High"},{"id":"ICMM01697","name":"Los Condores El Aguila, Minas","group":"","lat":-32.714,"lon":-65.266,"type":"Mine","country":"Argentina","commodity":"tungsten","mineral":"Others","risk":"High"},{"id":"ICMM01698","name":"Fray Luis Beltran Borghi","group":"","lat":-32.781,"lon":-60.749,"type":"Mine","country":"Argentina","commodity":"zinc","mineral":"Others","risk":"Elevated"},{"id":"ICMM01703","name":"San Roman","group":"","lat":-32.864,"lon":-66.116,"type":"Mine","country":"Argentina","commodity":"tungsten","mineral":"Others","risk":"High"},{"id":"ICMM01704","name":"La Florida","group":"","lat":-33.114,"lon":-65.999,"type":"Mine","country":"Argentina","commodity":"tungsten","mineral":"Others","risk":"High"},{"id":"ICMM01705","name":"Los Bronces","group":"Rio Blanco Cu Mine;Andina;Disputada;Sur Sur Mine;Andina;Los Bronces;Los Bronces;Andina Division;Los Bronces SX EW","lat":-33.151,"lon":-70.275,"type":"Mine","country":"Chile","commodity":"copper","mineral":"Copper","risk":"Elevated"},{"id":"ICMM01707","name":"Lo Aguirre Mine","group":"Lo Aguirre Mine;Lo Aguirre;Lo Aguirre","lat":-33.445,"lon":-70.93,"type":"Mine","country":"Chile","commodity":"copper","mineral":"Copper","risk":"Elevated"},{"id":"ICMM01708","name":"La Africana Cu Mine","group":"","lat":-33.459,"lon":-70.823,"type":"Mine","country":"Chile","commodity":"copper","mineral":"Copper","risk":"Elevated"},{"id":"ICMM01709","name":"El Teniente","group":"El Teniente;El Teniente;El Teniente;El Teniente SX EW","lat":-34.087,"lon":-70.364,"type":"Refinery","country":"Chile","commodity":"copper","mineral":"Copper","risk":"Elevated"},{"id":"ICMM01710","name":"Zarate","group":"","lat":-34.097,"lon":-59.033,"type":"Mine","country":"Argentina","commodity":"zinc","mineral":"Others","risk":"Elevated"},{"id":"ICMM01737","name":"San Martin Mine","group":"","lat":-40.381,"lon":-66.083,"type":"Mine","country":"Argentina","commodity":"tungsten","mineral":"Others","risk":"High"},{"id":"ICMM01741","name":"Maria","group":"","lat":-41.664,"lon":-71.0,"type":"Mine","country":"Argentina","commodity":"silver","mineral":"Others","risk":"Elevated"},{"id":"ICMM01743","name":"Camboa River","group":"","lat":-42.498,"lon":-73.783,"type":"Mine","country":"Chile","commodity":"platinum","mineral":"Others","risk":"Elevated"},{"id":"ICMM01746","name":"Zorras River","group":"","lat":-43.268,"lon":-74.39,"type":"Mine","country":"Chile","commodity":"platinum","mineral":"Others","risk":"Elevated"},{"id":"ICMM01749","name":"Commodoro Riuadavia","group":"","lat":-45.848,"lon":-67.499,"type":"Mine","country":"Argentina","commodity":"zinc","mineral":"Others","risk":"Elevated"},{"id":"ICMM01754","name":"Acari","group":"Acari;San Santiago Plant;Acari Copper Deposit 9","lat":-15.307,"lon":-74.581,"type":"Mine","country":"Peru","commodity":"copper","mineral":"Copper","risk":"Elevated"},{"id":"ICMM01759","name":"Arcata","group":"Arcata;Arcata;Farallon;Arcata Mine 1;Arcata Mine 1;Calera Vein, Orcopampa","lat":-14.979,"lon":-72.311,"type":"Mine","country":"Peru","commodity":"silver","mineral":"Others","risk":"Elevated"},{"id":"ICMM01766","name":"Cobriza","group":"Cobriza;Cobriza","lat":-12.59,"lon":-74.372,"type":"Refinery","country":"Peru","commodity":"copper","mineral":"Copper","risk":"Elevated"},{"id":"ICMM01771","name":"Huaron","group":"Huaron;Huaron;Huaron;Huaron;Animon Plant","lat":-11.005,"lon":-76.408,"type":"Mine","country":"Peru","commodity":"silver","mineral":"Others","risk":"Elevated"},{"id":"ICMM01772","name":"Iscaycruz","group":"Iscaycruz;Iscaycruz","lat":-10.78,"lon":-76.729,"type":"Mine","country":"Peru","commodity":"zinc","mineral":"Others","risk":"Elevated"},{"id":"ICMM01774","name":"Justa","group":"Justa;Marcona (Mina Justa)","lat":-15.154,"lon":-75.066,"type":"Mine","country":"Peru","commodity":"copper","mineral":"Copper","risk":"Elevated"},{"id":"ICMM01776","name":"La Virgen","group":"La Virgen;La Virgen","lat":-7.978,"lon":-78.076,"type":"Mine","country":"Peru","commodity":"silver","mineral":"Copper","risk":"Elevated"},{"id":"ICMM01782","name":"Pachangara","group":"","lat":-10.783,"lon":-76.815,"type":"Mine","country":"Peru","commodity":"zinc","mineral":"Others","risk":"Elevated"},{"id":"ICMM01790","name":"San Genaro","group":"San Genaro;San Genaro","lat":-13.194,"lon":-75.149,"type":"Mine","country":"Peru","commodity":"silver","mineral":"Others","risk":"Elevated"},{"id":"ICMM01792","name":"San Vicente","group":"San Vicente;San Vicente (SIMSA);San Vicente, Mina;San Vincente North and San Vicente South","lat":-11.23,"lon":-75.376,"type":"Mine","country":"Peru","commodity":"zinc","mineral":"Others","risk":"Elevated"},{"id":"ICMM01798","name":"Tintaya","group":"Tintaya;Antapaccay;Tintaya SX EW","lat":-14.878,"lon":-71.316,"type":"Refinery","country":"Peru","commodity":"copper","mineral":"Copper","risk":"Elevated"},{"id":"ICMM01800","name":"Uchucchacua","group":"Uchucchacua;Uchucchacua;Uchucchacua","lat":-10.622,"lon":-76.689,"type":"Mine","country":"Peru","commodity":"silver","mineral":"Others","risk":"Elevated"},{"id":"ICMM01807","name":"Cobre Panama","group":"Cerro Petaquilla;Cobre Panama","lat":8.834,"lon":-80.633,"type":"Mine","country":"Panama","commodity":"copper","mineral":"Copper","risk":"Elevated"},{"id":"ICMM01827","name":"La Pochota","group":"","lat":13.751,"lon":-87.682,"type":"Mine","country":"Honduras","commodity":"silver","mineral":"Others","risk":"Elevated"},{"id":"ICMM01842","name":"Yeseras Trinidad Copan","group":"","lat":14.82,"lon":-86.619,"type":"Mine","country":"Honduras","commodity":"silver","mineral":"Others","risk":"Elevated"},{"id":"ICMM01843","name":"El Mochito","group":"El Mochito;El Mochito Mine;El Mochito;El Mochito","lat":14.86,"lon":-88.078,"type":"Mine","country":"Honduras","commodity":"zinc","mineral":"Others","risk":"Elevated"},{"id":"ICMM01869","name":"Falcondo Ferronickel Plant","group":"","lat":18.917,"lon":-70.416,"type":"Refinery","country":"Dominican Republic","commodity":"nickel","mineral":"Nickel","risk":"Moderate"},{"id":"ICMM01880","name":"Punta Gorda","group":"","lat":20.001,"lon":-75.1,"type":"Mine","country":"Cuba","commodity":"nickel","mineral":"Nickel","risk":"Moderate"},{"id":"ICMM01881","name":"Grande I Mine","group":"Grande I Mine;El Cobre","lat":20.051,"lon":-75.954,"type":"Mine","country":"Cuba","commodity":"copper","mineral":"Copper","risk":"Elevated"},{"id":"ICMM01884","name":"Cuale","group":"Cuale;Cuale District","lat":20.374,"lon":-105.113,"type":"Mine","country":"Mexico","commodity":"copper","mineral":"Copper","risk":"Elevated"},{"id":"ICMM01888","name":"Mayari","group":"","lat":20.584,"lon":-75.85,"type":"Mine","country":"Cuba","commodity":"nickel","mineral":"Nickel","risk":"Moderate"},{"id":"ICMM01890","name":"Las Camariocas","group":"","lat":20.584,"lon":-74.8,"type":"Mine","country":"Cuba","commodity":"cobalt","mineral":"Cobalt","risk":"Elevated"},{"id":"ICMM01894","name":"Nicaro","group":"Nicaro;Nicaro;Nicaro Smelter","lat":20.695,"lon":-75.548,"type":"Smelter","country":"Cuba","commodity":"nickel","mineral":"Nickel","risk":"Moderate"},{"id":"ICMM01895","name":"Nicard Plant","group":"","lat":20.734,"lon":-75.55,"type":"Refinery","country":"Cuba","commodity":"nickel","mineral":"Nickel","risk":"Moderate"},{"id":"ICMM01897","name":"Zimapan (El Monte)","group":"El Monte Mine;Zimapan (El Monte)","lat":20.818,"lon":-99.389,"type":"Mine","country":"Mexico","commodity":"zinc","mineral":"Copper","risk":"Elevated"},{"id":"ICMM01903","name":"El Cubo","group":"Las Torres;El Cubo;Cedros;Las Torres;Guanajuato District;Las Torres Grupo Guanajuato;La Luz;Cebada;Guanajuato","lat":20.991,"lon":-101.22,"type":"Mine","country":"Mexico","commodity":"silver","mineral":"Others","risk":"Elevated"},{"id":"ICMM01914","name":"Bolanos Mine","group":"","lat":21.684,"lon":-103.784,"type":"Mine","country":"Mexico","commodity":"silver","mineral":"Others","risk":"Elevated"},{"id":"ICMM01918","name":"San Luis Potosi","group":"","lat":22.234,"lon":-100.934,"type":"Smelter","country":"Mexico","commodity":"zinc","mineral":"Others","risk":"Elevated"},{"id":"ICMM01919","name":"Real De Angeles","group":"Real De Angeles;Real de Angeles","lat":22.417,"lon":-101.9,"type":"Mine","country":"Mexico","commodity":"silver","mineral":"Others","risk":"Elevated"},{"id":"ICMM01921","name":"El Perro Mine","group":"","lat":22.501,"lon":-100.5,"type":"Mine","country":"Mexico","commodity":"tin","mineral":"Others","risk":"Elevated"},{"id":"ICMM01924","name":"Castellanos","group":"Castellanos;Santa Lucia;Castellanos;Santa Lucia;Castellanos","lat":22.642,"lon":-83.975,"type":"Mine","country":"Cuba","commodity":"zinc","mineral":"Others","risk":"Elevated"},{"id":"ICMM01932","name":"Fresnillo","group":"Fresnillo;Fresnillo;Fresnillo;Fresnillo;Pyrites Plant Concentrator;Fresnillo Mine","lat":23.165,"lon":-102.877,"type":"Mine","country":"Mexico","commodity":"silver","mineral":"Others","risk":"Elevated"},{"id":"ICMM01934","name":"La Colorada","group":"La Colorada;La Colorada (Zac Mx);La Colorada","lat":23.383,"lon":-103.763,"type":"Mine","country":"Mexico","commodity":"silver","mineral":"Others","risk":"Elevated"},{"id":"ICMM01939","name":"Real De Angeles","group":"","lat":23.5,"lon":-103.0,"type":"Mine","country":"Mexico","commodity":"silver","mineral":"Others","risk":"Elevated"},{"id":"ICMM01943","name":"Real De Catorce","group":"","lat":23.684,"lon":-100.85,"type":"Mine","country":"Mexico","commodity":"silver","mineral":"Others","risk":"Elevated"},{"id":"ICMM01949","name":"San Dimas","group":"Tayoltita;Tayoltita;San Dimas","lat":24.106,"lon":-105.927,"type":"Mine","country":"Mexico","commodity":"silver","mineral":"Copper","risk":"Elevated"},{"id":"ICMM01950","name":"Sierra De St. Maria","group":"","lat":24.146,"lon":-103.935,"type":"Mine","country":"Mexico","commodity":"tin","mineral":"Others","risk":"Elevated"},{"id":"ICMM01953","name":"Nueva Rosita","group":"","lat":24.434,"lon":-101.217,"type":"Mine","country":"Mexico","commodity":"zinc","mineral":"Others","risk":"Elevated"},{"id":"ICMM01954","name":"Saltillo","group":"","lat":24.434,"lon":-101.0,"type":"Mine","country":"Mexico","commodity":"zinc","mineral":"Others","risk":"Elevated"},{"id":"ICMM01959","name":"Aranzazu","group":"Concepcion Del Oro District;Aranzazu;Aranzazu","lat":24.614,"lon":-101.425,"type":"Mine","country":"Mexico","commodity":"copper","mineral":"Copper","risk":"Elevated"},{"id":"ICMM01965","name":"Las Yedras Mine","group":"","lat":25.0,"lon":-107.001,"type":"Mine","country":"Mexico","commodity":"platinum","mineral":"Others","risk":"Elevated"},{"id":"ICMM01968","name":"Velardena","group":"Velardena;Velardena;Velardena","lat":25.062,"lon":-103.735,"type":"Mine","country":"Mexico","commodity":"zinc","mineral":"Others","risk":"Elevated"},{"id":"ICMM01970","name":"Topia Mine","group":"Topia Mine;Topia;Topia","lat":25.214,"lon":-106.569,"type":"Mine","country":"Mexico","commodity":"silver","mineral":"Others","risk":"Elevated"},{"id":"ICMM01988","name":"Frisco and Clarines Zn, Pb, Ag, Au, F Mines","group":"","lat":26.934,"lon":-105.717,"type":"Mine","country":"Mexico","commodity":"zinc","mineral":"Others","risk":"Elevated"},{"id":"ICMM01993","name":"La Esmeralda","group":"","lat":27.267,"lon":-103.659,"type":"Mine","country":"Mexico","commodity":"silver","mineral":"Others","risk":"Elevated"},{"id":"ICMM02030","name":"Santa Rosa","group":"Santa Rosa;San Antonio","lat":28.609,"lon":-109.755,"type":"Mine","country":"Mexico","commodity":"silver","mineral":"Others","risk":"Elevated"},{"id":"ICMM02031","name":"Potosi Mine","group":"Potosi Mine;El Potosi;El Potosi","lat":28.604,"lon":-105.87,"type":"Mine","country":"Mexico","commodity":"silver","mineral":"Copper","risk":"Elevated"},{"id":"ICMM02072","name":"Lampazos","group":"","lat":29.41,"lon":-109.412,"type":"Mine","country":"Mexico","commodity":"silver","mineral":"Copper","risk":"Elevated"},{"id":"ICMM02091","name":"Pilares","group":"Pilares;Pilares;Pilares","lat":30.333,"lon":-109.633,"type":"Mine","country":"Mexico","commodity":"copper","mineral":"Copper","risk":"Elevated"},{"id":"ICMM02092","name":"Bird Mine","group":"","lat":30.343,"lon":-103.517,"type":"Mine","country":"United States","commodity":"silver","mineral":"Others","risk":"Elevated"},{"id":"ICMM02104","name":"Buenavista","group":"Cananea;Cananea;Esperanza;Buenavista;Buenavista;Buenavista;Buenavista;Buenavista del Cobre Smelter;Buenavista SX EW","lat":30.965,"lon":-110.319,"type":"Mine","country":"Mexico","commodity":"copper","mineral":"Copper","risk":"Elevated"},{"id":"ICMM02108","name":"Bismark","group":"Bismark;Bismark;Bismark;Bismark","lat":31.234,"lon":-107.588,"type":"Mine","country":"Mexico","commodity":"copper","mineral":"Copper","risk":"Elevated"},{"id":"ICMM02122","name":"Sacramento and Lavender Pits","group":"Danville Hanchetta Claims;Irish Mag Shaft;Copper Queen Ug Leaching;Sacramento and Lavender Pits","lat":31.429,"lon":-109.902,"type":"Mine","country":"United States","commodity":"copper","mineral":"Copper","risk":"Elevated"},{"id":"ICMM02152","name":"Eocene Research Plant","group":"","lat":31.644,"lon":-110.144,"type":"Refinery","country":"United States","commodity":"silver","mineral":"Others","risk":"Elevated"},{"id":"ICMM02154","name":"Arizona Mine","group":"Arizona Mine;Silver Shield Mine;Cerro Colorado;Twin Plant Plant","lat":31.654,"lon":-111.277,"type":"Mine","country":"United States","commodity":"copper","mineral":"Copper","risk":"Elevated"},{"id":"ICMM02174","name":"Victor Mine","group":"","lat":31.834,"lon":-111.084,"type":"Mine","country":"United States","commodity":"silver","mineral":"Others","risk":"Elevated"},{"id":"ICMM02176","name":"Silver Cloud Mine","group":"Silver Cloud Mine;Black Diamond Mine;Festerling Mine;Black Diamond Mines","lat":31.847,"lon":-109.94,"type":"Mine","country":"United States","commodity":"copper","mineral":"Copper","risk":"Elevated"},{"id":"ICMM02177","name":"Esperanza Plant","group":"Esperanza Plant;Armargosa Arroyo Placers;Duval Esperanza;High Hill Mine;Sierrita;Two Friends Mine;Duval Sierrita;Duval Sierrita;Sierrita;Sierrita;Sierrita;Sierrita SX EW","lat":31.864,"lon":-111.138,"type":"Mine","country":"United States","commodity":"copper","mineral":"Copper","risk":"Elevated"},{"id":"ICMM02179","name":"Newman Mine","group":"Newman Mine;Bulldozer Mine;Blue Jay Good Friday Mines","lat":31.874,"lon":-110.782,"type":"Mine","country":"United States","commodity":"copper","mineral":"Copper","risk":"Elevated"},{"id":"ICMM02181","name":"South End Mine","group":"South End Mine;Helena Mine;Rosemont","lat":31.866,"lon":-110.709,"type":"Mine","country":"United States","commodity":"copper","mineral":"Copper","risk":"Elevated"},{"id":"ICMM02190","name":"Abril Mine","group":"","lat":31.909,"lon":-109.992,"type":"Mine","country":"United States","commodity":"zinc","mineral":"Others","risk":"Elevated"},{"id":"ICMM02194","name":"Dimple Mine","group":"Dimple Mine;Blow Out Mine;La Libre Mine","lat":31.935,"lon":-110.711,"type":"Mine","country":"United States","commodity":"copper","mineral":"Copper","risk":"Elevated"},{"id":"ICMM02196","name":"Twin Buttes Oxide Plant","group":"","lat":31.935,"lon":-111.004,"type":"Refinery","country":"United States","commodity":"copper","mineral":"Copper","risk":"Elevated"},{"id":"ICMM02201","name":"Arizona No. 3 Mine","group":"Arizona No. 3 Mine;Paymaster Mine Group;Alpha Mine;Vivienne Mine;Olivette Mine;Annete Mine;Silver Helmet Mine;Whitcomb Mine;Pima District;South San Xavier Mine;San Xavier Mine Shaft;San Xavier Extension Mine;Vulcan Mine;Plumed Knight Mine;Pima Open Pit Mine;Mission Complex;Mission Mine;Mission Mill;Mission Complex;Mission;Whitcomb","lat":31.971,"lon":-111.089,"type":"Mine","country":"United States","commodity":"copper","mineral":"Copper","risk":"Elevated"},{"id":"ICMM02203","name":"Round Valley Morrow Mine","group":"","lat":31.957,"lon":-109.163,"type":"Mine","country":"United States","commodity":"silver","mineral":"Others","risk":"Elevated"},{"id":"ICMM02220","name":"Gunnison","group":"Dragoon Copper Mine;St. George Claim;Johnson Pit;Peacock Mine;Johnson Camp;Johnson Mine;McKay Mine;Johnson District;Gunnison;Johnson Camp;Gunnison","lat":32.099,"lon":-110.061,"type":"Mine","country":"United States","commodity":"copper","mineral":"Copper","risk":"Elevated"},{"id":"ICMM02254","name":"Volcano","group":"","lat":32.304,"lon":-109.02,"type":"Mine","country":"United States","commodity":"silver","mineral":"Others","risk":"Elevated"},{"id":"ICMM02256","name":"Bonney Misers Chest and 85 Mine and Plt","group":"Bonney Misers Chest and 85 Mine and Plt;Century Mine;Lordsburg/Goldfield Hidalgo;Lordsburg Plant","lat":32.313,"lon":-108.755,"type":"Mine","country":"United States","commodity":"silver","mineral":"Others","risk":"Elevated"},{"id":"ICMM02266","name":"Ajo","group":"Copper Ledge Mine;Ajo Placers;New Cornelia Div Mill;Ajo District;Ajo;Ajo Peak Mine;Cardigan Mine","lat":32.36,"lon":-112.856,"type":"Mine","country":"United States","commodity":"copper","mineral":"Copper","risk":"Elevated"},{"id":"ICMM02270","name":"Silver Bell mine","group":"Unnamed Prospect Vhne 029n;Silver Bell mine;Oxide Mine;Silver Bell;Silver Bell;Silver Bell SX EW","lat":32.395,"lon":-111.506,"type":"Mine","country":"United States","commodity":"copper","mineral":"Copper","risk":"Elevated"},{"id":"ICMM02281","name":"Tohono","group":"Tohono;Electrowinning Plant;Lakeshore Mill;Mammon Mine;Tohono","lat":32.526,"lon":-111.904,"type":"Mine","country":"United States","commodity":"copper","mineral":"Copper","risk":"Elevated"},{"id":"ICMM02292","name":"Great Eastern Mine","group":"","lat":32.592,"lon":-112.138,"type":"Mine","country":"United States","commodity":"silver","mineral":"Others","risk":"Elevated"},{"id":"ICMM02294","name":"Lucky Strike No. 1 , 2 and 3","group":"","lat":32.597,"lon":-108.365,"type":"Mine","country":"United States","commodity":"silver","mineral":"Others","risk":"Elevated"},{"id":"ICMM02298","name":"Tyrone","group":"Tyrone;Burro Mountains District;Burro Chief Mine;Tyrone;Tyrone;Tyrone;Tyrone SX EW","lat":32.643,"lon":-108.371,"type":"Mine","country":"United States","commodity":"copper","mineral":"Copper","risk":"Elevated"},{"id":"ICMM02300","name":"San Manuel Engineering and Tech","group":"San Manuel Engineering and Tech;Mohawk New Year Mine;San Manuel;San Manuel;Tiger Tailings","lat":32.697,"lon":-110.681,"type":"Mine","country":"United States","commodity":"copper","mineral":"Copper","risk":"Elevated"},{"id":"ICMM02307","name":"Mammoth Butte Mine","group":"Mammoth Butte Mine;Magna Mine;Bunker Hill Mine;Clark Mine;Old Reliable","lat":32.74,"lon":-110.483,"type":"Mine","country":"United States","commodity":"copper","mineral":"Copper","risk":"Elevated"},{"id":"ICMM02312","name":"Ash Peak Mines","group":"Ash Peak Mines;Ash Peak;Ash Peak District;Ash Peak","lat":32.763,"lon":-109.254,"type":"Mine","country":"United States","commodity":"copper","mineral":"Copper","risk":"Elevated"},{"id":"ICMM02315","name":"Star Shaft","group":"Star Shaft;Chino;Chino Mine;Republic Mine;Chino;Chino;Chino;Chino SX EW","lat":32.794,"lon":-108.073,"type":"Mine","country":"United States","commodity":"copper","mineral":"Copper","risk":"Elevated"},{"id":"ICMM02318","name":"Mount Royal Mine","group":"Mount Royal Mine;Jim Crow Imperial Group;Jim Crow Imperial Group;Imperial","lat":32.817,"lon":-108.98,"type":"Mine","country":"United States","commodity":"copper","mineral":"Copper","risk":"Elevated"},{"id":"ICMM02320","name":"Big Bear and Little Bear Mine","group":"Big Bear and Little Bear Mine;Cargo Mine;Blossom Mine;Madre and Padre Mines;American Girl Mine;American Girl Mine;Butterfly Group of Mines;American Girl","lat":32.847,"lon":-114.789,"type":"Mine","country":"United States","commodity":"copper","mineral":"Copper","risk":"Elevated"},{"id":"ICMM02323","name":"Continental Mill No 2","group":"Continental Mill No 2;Continental Surface;Continental Mill No 1;Continental Underground;Cobre Magnetite Stockpile;Cobre SX EW","lat":32.85,"lon":-108.088,"type":"Mine","country":"United States","commodity":"copper","mineral":"Copper","risk":"Elevated"},